,Eviction Address,Executed Date,Residential/Commercial,BOROUGH,Eviction Postcode,Latitude,Longitude,NTAName
31,265 EAST 194TH  STRE ET A/K/A 265-269 EAST 194TH STREET,2020-03-12,Residential,BRONX,10458,40.864883,-73.892518,Bedford Park-Fordham North
91,1793 SEDGWICK AVENUE AKA 1800-08 CEDAR AVENUE,2020-01-02,Residential,BRONX,10453,40.852354,-73.920086,University Heights-Morris Heights
106,619 MILLER AVENUE,2020-03-11,Residential,BROOKLYN,11207,40.665189,-73.889304,East New York
113,70 FLEET STREET A/K/ A 7 DEKALB AVENUE,2020-03-11,Residential,BROOKLYN,11201,40.690713,-73.982565,DUMBO-Vinegar Hill-Downtown Brooklyn-Boerum Hill
118,3459 EASTCHESTER   R OAD,2020-01-23,Residential,BRONX,10469,40.877979,-73.846894,Eastchester-Edenwald-Baychester
138,165 CONOVER STREET,2020-01-15,Residential,BROOKLYN,11231,40.678282,-74.013996,Carroll Gardens-Columbia Street-Red Hook
144,966 SOUTHERN BLVD.,2020-01-09,Commercial,BRONX,10459,40.822241,-73.891731,Hunts Point
207,2172 AMSTERDAM AVENUE A/K/A 2172-2174 AMSTERDAM AVENUE,2020-03-10,Commercial,MANHATTAN,10032,40.839602,-73.93712,Washington Heights South
208,2172 AMSTERDAM AVENUE A/K/A 2172-2174 AMSTERDAM AVENUE,2020-03-10,Commercial,MANHATTAN,10032,40.839602,-73.93712,Washington Heights South
211,1175 FINDLAY AVENUE,2020-01-23,Residential,BRONX,10456,40.832271,-73.912652,East Concourse-Concourse Village
276,255-09 147TH DRIVE,2020-01-07,Residential,QUEENS,11422,40.655814,-73.733861,Rosedale
283,121 ST.NICHOLAS AVE A/K/A 201-203 WEST 116TH STREET,2020-02-11,Commercial,MANHATTAN,10026,40.803703,-73.952707,Central Harlem South
285,1986 HOBART AVE,2020-01-23,Residential,BRONX,10461,40.851127,-73.831102,Pelham Bay-Country Club-City Island
317,1745 PRESIDENT ST,2020-02-05,Residential,BROOKLYN,11213,40.666917,-73.929273,Crown Heights North
337,1997 DAVIDSON AVENUE,2020-02-27,Residential,BRONX,10453,40.852752,-73.909483,University Heights-Morris Heights
342,128 WYTHE AVENUE,2020-01-07,Residential,BROOKLYN,11249,40.72055,-73.959343,North Side-South Side
377,226 E 74TH STREET,2020-01-02,Residential,MANHATTAN,10021,40.770741,-73.958897,Lenox Hill-Roosevelt Island
387,19 EAST VAN CORTLANDT AVENUE,2020-02-19,Residential,BRONX,10468,40.877261,-73.886484,Bedford Park-Fordham North
406,575 80TH STREET,2020-02-18,Residential,BROOKLYN,11209,40.624735,-74.022407,Bay Ridge
417,19 EAST VAN CORTLANDT AVENUE,2020-02-19,Residential,BRONX,10468,40.877261,-73.886484,Bedford Park-Fordham North
419,230 LOTT AVENUE,2020-02-21,Residential,BROOKLYN,11212,40.658319,-73.905152,Brownsville
482,86-54 208TH STREET,2020-02-24,Residential,QUEENS,11427,40.724093,-73.761314,Jamaica Estates-Holliswood
489,2039 SECOND AVENUE,2020-01-30,Residential,MANHATTAN,10029,40.789774,-73.943068,East Harlem South
509,2026 WESTCHESTER AVE NUE,2020-01-14,Residential,BRONX,10462,40.833662,-73.856695,Westchester-Unionport
553,706 BROOK AVE,2020-01-21,Residential,BRONX,10455,40.819223,-73.912484,Melrose South-Mott Haven North
556,24 MONUMENT WALK,2020-01-10,Residential,BROOKLYN,11205,40.695491,-73.979531,Fort Greene
598,1140 NEW YORK AVENUE,2020-02-25,Residential,BROOKLYN,11203,40.645566,-73.946113,Erasmus
599,2351 HAVILAND AVENUE,2020-01-29,Residential,BRONX,10462,40.831115,-73.846088,Westchester-Unionport
600,2351 HAVILAND AVENUE,2020-01-29,Residential,BRONX,10462,40.831115,-73.846088,Westchester-Unionport
673,3343 PAULDING AVENUE,2020-02-06,Residential,BRONX,10469,40.874195,-73.858333,Williamsbridge-Olinville
674,3343 PAULDING AVENUE,2020-02-06,Residential,BRONX,10469,40.874195,-73.858333,Williamsbridge-Olinville
683,518 PENNSYLVANIA AVENUE,2020-03-05,Residential,BROOKLYN,11207,40.664408,-73.893966,East New York (Pennsylvania Ave)
689,137 BAY 17TH STREET APT. 1F,2020-01-03,Residential,BROOKLYN,11214,40.604928,-74.006284,Bath Beach
721,114-24 172ND STREET,2020-03-11,Residential,QUEENS,11434,40.691334,-73.777896,St. Albans
724,97-27 132ND STREET,2020-01-06,Residential,QUEENS,11419,40.694008,-73.81586,Richmond Hill
757,2204 FULTON STREET,2020-01-22,Residential,BROOKLYN,11233,40.678134,-73.908275,Ocean Hill
843,83-33 118TH STREET,2020-02-14,Residential,QUEENS,11415,40.706235,-73.834603,Kew Gardens
861,1358 FINDLAY AVENUE,2020-01-09,Residential,BRONX,10456,40.83674,-73.909849,East Concourse-Concourse Village
869,644 NEW YORK AVENUE UNIT 3,2020-02-19,Residential,BROOKLYN,11203,40.658539,-73.947497,Prospect Lefferts Gardens-Wingate
905,74-78 POST AVENUE,2020-01-23,Residential,MANHATTAN,10034,40.863776,-73.922187,Marble Hill-Inwood
906,74-78 POST AVENUE,2020-01-23,Residential,MANHATTAN,10034,40.863776,-73.922187,Marble Hill-Inwood
913,745 EAST 223RD ST,2020-01-28,Residential,BRONX,10466,40.885952,-73.859819,Williamsbridge-Olinville
938,563 BEACH 67TH STREET,2020-02-14,Residential,QUEENS,11692,40.596157,-73.796502,Hammels-Arverne-Edgemere
950,119-45 SUTPHIN BLVD,2020-02-18,Residential,QUEENS,11434,40.678417,-73.791358,Baisley Park
972,160 EAST 117 STREET,2020-01-02,Residential,MANHATTAN,10035,40.799094,-73.940658,East Harlem North
974,70 AMSTERDAM AVENUE,2020-03-04,Residential,MANHATTAN,10023,40.772638,-73.986003,Lincoln Square
975,70 AMSTERDAM AVENUE,2020-03-04,Residential,MANHATTAN,10023,40.772638,-73.986003,Lincoln Square
980,1945 HUNT AVENUE,2020-01-10,Residential,BRONX,10462,40.849027,-73.865995,Van Nest-Morris Park-Westchester Square
981,1945 HUNT AVENUE,2020-01-10,Residential,BRONX,10462,40.849027,-73.865995,Van Nest-Morris Park-Westchester Square
993,1122 INTERVALE AVENUE,2020-01-21,Residential,BRONX,10459,40.826974,-73.896391,Longwood
994,1122 INTERVALE AVENUE,2020-01-21,Residential,BRONX,10459,40.826974,-73.896391,Longwood
1011,885 SIXTH AVENUE,2020-03-10,Residential,MANHATTAN,10001,40.748189,-73.988963,Midtown-Midtown South
1017,1512 PARK PLACE,2020-01-27,Residential,BROOKLYN,11213,40.672153,-73.927065,Crown Heights North
1061,621 LEFFERTS AVE,2020-02-05,Residential,BROOKLYN,11203,40.662971,-73.940966,Crown Heights South
1063,2131 8TH AVENUE,2020-02-20,Commercial,MANHATTAN,10026,40.803893,-73.955766,Central Harlem South
1089,1727 STEPHEN STREET,2020-03-02,Residential,QUEENS,11385,40.697984,-73.901565,Ridgewood
1123,2701 MARION AVENUE,2020-01-14,Residential,BRONX,10458,40.865531,-73.889693,Bedford Park-Fordham North
1124,1322 EAST 65TH STREE T,2020-03-09,Residential,BROOKLYN,11234,40.621326,-73.916443,Georgetown-Marine Park-Bergen Beach-Mill Basin
1133,18-15 215TH STREET,2020-01-29,Residential,QUEENS,11360,40.783752,-73.776303,Ft. Totten-Bay Terrace-Clearview
1175,3022 PAULDING AVENUE,2020-01-23,Residential,BRONX,10469,40.869946,-73.858519,Allerton-Pelham Gardens
1176,3022 PAULDING AVENUE,2020-01-23,Residential,BRONX,10469,40.869946,-73.858519,Allerton-Pelham Gardens
1245,2203 BELMONT AVENUE,2020-01-06,Residential,BRONX,10458,40.851229,-73.887884,Belmont
1246,2203 BELMONT AVENUE,2020-01-06,Residential,BRONX,10458,40.851229,-73.887884,Belmont
1288,165 QUINCY STREET,2020-02-13,Residential,BROOKLYN,11216,40.686582,-73.953991,Bedford
1297,2326 GLEASON AVENUE,2020-02-18,Residential,BRONX,10462,40.832469,-73.846948,Westchester-Unionport
1308,2803 BOSTON ROAD,2020-03-05,Commercial,BRONX,10469,40.866907,-73.860554,Allerton-Pelham Gardens
1326,38-07 27TH STREET,2020-03-10,Residential,QUEENS,11101,40.755184,-73.935218,Queensbridge-Ravenswood-Long Island City
1363,2041 PACIFIC ST.,2020-02-24,Residential,BROOKLYN,11233,40.676051,-73.920294,Ocean Hill
1386,364 95TH STREET,2020-02-14,Residential,BROOKLYN,11209,40.616469,-74.032111,Bay Ridge
1395,503 BEVERLY ROAD,2020-02-14,Residential,BROOKLYN,11218,40.64318,-73.975292,Kensington-Ocean Parkway
1411,706 LEFFERTS AVENUE,2020-01-17,Residential,BROOKLYN,11203,40.663148,-73.937837,Prospect Lefferts Gardens-Wingate
1433,83-31 116TH STREET,2020-02-04,Residential,QUEENS,11418,40.705638,-73.836033,Kew Gardens
1459,340 EAST 184TH ST,2020-01-29,Residential,BRONX,10458,40.858098,-73.89567,Fordham South
1478,12 EAST 213TH STREET,2020-03-02,Residential,BRONX,10467,40.885002,-73.878848,Norwood
1578,1062-1064 BROOK AVEN UE  ##,2020-02-11,Commercial,BRONX,10467,40.828556,-73.911381,East Concourse-Concourse Village
1597,23-94 MOTT AVENUE,2020-02-20,Residential,QUEENS,11691,40.607114,-73.762251,Far Rockaway-Bayswater
1605,139-55 35TH AVE,2020-03-06,Residential,QUEENS,11354,40.765445,-73.827207,Flushing
1618,211 WEST 21ST STREET,2020-01-13,Residential,MANHATTAN,10011,40.743076,-73.997182,Hudson Yards-Chelsea-Flatiron-Union Square
1682,1426 VYSE AVENUE,2020-01-16,Residential,BRONX,10459,40.830936,-73.889425,Crotona Park East
1727,4114 VICTORY BLVD.,2020-01-02,Commercial,STATEN ISLAND,10314,40.591529,-74.190947,New Springville-Bloomfield-Travis
1733,1051 TRINITY AVENUE,2020-01-21,Residential,BRONX,10456,40.82641,-73.9045,Morrisania-Melrose
1736,2245 BARKER AVENUE,2020-01-31,Residential,BRONX,10467,40.858516,-73.86954,Bronxdale
1737,2245 BARKER AVENUE,2020-01-31,Residential,BRONX,10467,40.858516,-73.86954,Bronxdale
1775,460 CONVENT AVENUE,2020-01-21,Residential,MANHATTAN,10031,40.827902,-73.943787,Hamilton Heights
1824,132 WEST 129TH ST,2020-01-06,Residential,MANHATTAN,10027,40.810866,-73.944953,Central Harlem North-Polo Grounds
1835,833 LONGFELLOW AVE,2020-01-03,Residential,BRONX,10474,40.818057,-73.885509,Hunts Point
1869,1329 65TH STREET - 1ST FL,2020-02-21,Commercial,BROOKLYN,11219,40.625525,-74.000742,Dyker Heights
1906,176 EAST 176TH STREE T,2020-02-10,Residential,BRONX,10457,40.847659,-73.906776,Mount Hope
1908,67-50 B 188TH STREET    UNIT 1B,2020-03-06,Residential,QUEENS,11365,40.735787,-73.784301,Fresh Meadows-Utopia
1941,33 CENTRAL AVENUE,2020-02-20,Residential,STATEN ISLAND,10301,40.64095,-74.076785,West New Brighton-New Brighton-St. George
1956,1266 MORRIS AVENUE,2020-02-05,Residential,BRONX,10456,40.83489,-73.913129,East Concourse-Concourse Village
1960,235-15 BENTLEY ROAD,2020-01-10,Residential,QUEENS,11422,40.654285,-73.74748,Springfield Gardens South-Brookville
1986,3603 THIRD AVENUE,2020-02-19,Residential,BRONX,10456,40.83308,-73.904809,Claremont-Bathgate
1992,3044 KINGSBRIDGE AVE,2020-01-16,Residential,BRONX,10463,40.878987,-73.907343,Spuyten Duyvil-Kingsbridge
2041,83-39 116TH STREET,2020-01-06,Residential,QUEENS,11418,40.705487,-73.836001,Kew Gardens
2063,2095 GRAND CONCOURSE,2020-01-03,Residential,BRONX,10453,40.853858,-73.902469,Mount Hope
2073,70 LINDEN BOULEVARD,2020-03-10,Residential,BROOKLYN,11226,40.65229,-73.956328,Prospect Lefferts Gardens-Wingate
2082,246-03 JERICHO TPKE,2020-01-21,Residential,QUEENS,11426,40.725083,-73.721837,Bellerose
2098,529 WEST 29TH STREET,2020-03-02,Residential,MANHATTAN,10001,40.751966,-74.002642,Hudson Yards-Chelsea-Flatiron-Union Square
2100,9226 KAUFMAN PLACE - GROUND FL,2020-02-21,Residential,BROOKLYN,11236,40.634074,-73.895181,Canarsie
2103,812 MACE AVENUE,2020-03-02,Residential,BRONX,10467,40.863126,-73.863096,Bronxdale
2104,812 MACE AVENUE,2020-03-02,Residential,BRONX,10467,40.863126,-73.863096,Bronxdale
2138,375 MANOR ROAD,2020-01-08,Residential,STATEN ISLAND,10314,40.618542,-74.123468,Westerleigh
2148,418 BLAKE AVENUE,2020-01-21,Residential,BROOKLYN,11212,40.66644,-73.904153,Brownsville
2248,33-24 PARSONS BLVD,2020-01-29,Residential,QUEENS,11354,40.767754,-73.824136,Flushing
2292,200 WATER STREET,2020-02-19,Residential,MANHATTAN,10038,40.707317,-74.004271,Battery Park City-Lower Manhattan
2303,50-30 BROADWAY,2020-01-27,Residential,QUEENS,11377,40.754835,-73.910212,Astoria
2325,2345 CROTONA AVENUE,2020-03-10,Residential,BRONX,10458,40.853257,-73.88397,Belmont
2327,224 ATLANTIC AVENUE,2020-03-11,Residential,BROOKLYN,11201,40.689451,-73.991678,DUMBO-Vinegar Hill-Downtown Brooklyn-Boerum Hill
2338,235 SKILLMAN STREET,2020-01-27,Residential,BROOKLYN,11205,40.691329,-73.956451,Clinton Hill
2358,1667 POPHAM AVENUE,2020-03-05,Residential,BRONX,10453,40.849365,-73.920697,University Heights-Morris Heights
2396,256 60TH STREET - APT #3R,2020-01-21,Residential,BROOKLYN,11220,40.642752,-74.021599,Sunset Park West
2460,3873 ORLOFF AVENUE,2020-02-13,Commercial,BRONX,10463,40.884179,-73.896157,Van Cortlandt Village
2469,287 WEST 150 STREET,2020-02-05,Residential,MANHATTAN,10039,40.825657,-73.938755,Central Harlem North-Polo Grounds
2476,494 SOUTHERN BLVD,2020-01-27,Residential,BRONX,10455,40.811161,-73.90557,Mott Haven-Port Morris
2482,11-42 WELLING COURT,2020-01-08,Residential,QUEENS,11102,40.771417,-73.932523,Old Astoria
2500,711 EAST 228TH ST,2020-02-20,Residential,BRONX,10466,40.88973,-73.858658,Williamsbridge-Olinville
2503,350 EAST 137TH  STREET,2020-02-11,Residential,BRONX,10454,40.809233,-73.925318,Mott Haven-Port Morris
2510,609 E 40TH STREET,2020-03-13,Residential,BROOKLYN,11203,40.640583,-73.938867,East Flatbush-Farragut
2514,1711 FULTON STREET,2020-02-20,Residential,BROOKLYN,11233,40.679338,-73.930374,Crown Heights North
2523,1314 SENECA AVENUE,2020-02-25,Residential,BRONX,10474,40.81894,-73.886981,Hunts Point
2573,14 METROPOLITAN OVAL,2020-03-04,Residential,BRONX,10462,40.838289,-73.859143,Parkchester
2586,720 LENOX AVENUE,2020-01-21,Residential,MANHATTAN,10039,40.821198,-73.935663,Central Harlem North-Polo Grounds
2673,164 LINDEN BOULEVARD,2020-03-06,Residential,BROOKLYN,11226,40.652505,-73.952227,Prospect Lefferts Gardens-Wingate
2684,152 WEST 36TH STREET,2020-01-06,Commercial,MANHATTAN,10018,40.751806,-73.988588,Midtown-Midtown South
2703,101 DICTUM COURT,2020-02-14,Residential,BROOKLYN,11229,40.595251,-73.930537,Sheepshead Bay-Gerritsen Beach-Manhattan Beach
2743,6301 23RD AVENUE,2020-03-11,Residential,BROOKLYN,11204,40.61357,-73.978072,Bensonhurst East
2751,4769 WHITE PLAINS RO AD,2020-01-07,Residential,BRONX,10470,40.90524,-73.849534,Woodlawn-Wakefield
2785,105 ASHFORD ST - ATTIC,2020-01-23,Residential,BROOKLYN,11207,40.680143,-73.886625,Cypress Hills-City Line
2817,283 ALBANY AVENUE A/ K/A 283-28 ALBANY AVENUE,2020-01-03,Residential,BROOKLYN,11213,40.670848,-73.939269,Crown Heights North
2869,280 FROST STREET,2020-02-27,Residential,BROOKLYN,11222,40.718728,-73.940271,East Williamsburg
2884,733 MADISON STREET,2020-03-13,Residential,BROOKLYN,11221,40.687373,-73.927603,Stuyvesant Heights
2911,1086 SOUTHERN BLVD,2020-03-04,Residential,BRONX,10459,40.825655,-73.891913,Hunts Point
2921,353 SOUTH 3RD STREET,2020-02-24,Residential,BROOKLYN,11211,40.709221,-73.953481,North Side-South Side
2923,4048 HARPER AVENUE,2020-01-08,Residential,BRONX,10469,40.891965,-73.832781,Eastchester-Edenwald-Baychester
2925,596 LINDEN BOULEVARD,2020-01-29,Residential,BROOKLYN,11203,40.653417,-73.936715,East Flatbush-Farragut
2943,1058 UNIVERSITY AVE,2020-02-18,Residential,BRONX,10452,40.834836,-73.930157,Highbridge
2987,57-59 GRANGER STREET,2020-03-09,Residential,QUEENS,11368,40.738918,-73.856304,Corona
3009,237-15 FAIRBURY AVENUE,2020-02-18,Residential,QUEENS,11426,40.724734,-73.730057,Bellerose
3035,108 WEST 139TH ST,2020-01-30,Residential,MANHATTAN,10030,40.816976,-73.939771,Central Harlem North-Polo Grounds
3072,253 5TH AVENUE  ##,2020-01-29,Commercial,MANHATTAN,10016,40.744843,-73.987167,Midtown-Midtown South
3077,957 EAST 224TH STREET,2020-01-08,Residential,BRONX,10466,40.8848,-73.853598,Williamsbridge-Olinville
3078,957 EAST 224TH STREET,2020-01-08,Residential,BRONX,10466,40.8848,-73.853598,Williamsbridge-Olinville
3120,109 RUSTIC PLACE,2020-01-09,Residential,STATEN ISLAND,10308,40.547068,-74.148285,Great Kills
3158,351 63RD STREET,2020-01-02,Residential,BROOKLYN,11220,40.639522,-74.02079,Sunset Park West
3161,873-875 BROOK AVENUE,2020-02-18,Residential,BRONX,10451,40.82269,-73.910507,Morrisania-Melrose
3186,860 RIVERSIDE DRIVE,2020-01-17,Residential,MANHATTAN,10032,40.83614,-73.946251,Washington Heights South
3223,464 58TH STREET,2020-01-29,Residential,BROOKLYN,11220,40.641142,-74.015847,Sunset Park West
3226,747 EAST 168TH STREE T,2020-02-20,Residential,BRONX,10456,40.829416,-73.901392,Morrisania-Melrose
3227,598 WEST 191ST STREET,2020-02-19,Residential,MANHATTAN,10040,40.855464,-73.928968,Washington Heights North
3294,23-94 MOTT AVENUE,2020-02-20,Residential,QUEENS,11691,40.607114,-73.762251,Far Rockaway-Bayswater
3315,1797 WESTCHESTER AVE,2020-02-11,Commercial,BRONX,10472,40.831826,-73.866557,West Farms-Bronx River
3340,2500 JOHNSON AVENUE,2020-01-13,Residential,BRONX,10463,40.877162,-73.917861,Spuyten Duyvil-Kingsbridge
3341,2500 JOHNSON AVENUE,2020-01-13,Residential,BRONX,10463,40.877162,-73.917861,Spuyten Duyvil-Kingsbridge
3378,6255 BROADWAY,2020-01-07,Residential,BRONX,10471,40.897985,-73.897018,North Riverdale-Fieldston-Riverdale
3381,951 HOE AVENUE,2020-01-14,Residential,BRONX,10459,40.822088,-73.89034,Hunts Point
3440,2197-2199 CRUGER AVE,2020-02-03,Residential,BRONX,10462,40.856265,-73.866649,Pelham Parkway
3470,388 EAST 2ND STREET,2020-03-11,Residential,BROOKLYN,11218,40.641808,-73.978063,Kensington-Ocean Parkway
3496,3971 GOUVERNEUR AVEN UE,2020-01-28,Residential,BRONX,10463,40.883538,-73.891851,Van Cortlandt Village
3510,105 EAST 168TH STREET,2020-01-13,Residential,BRONX,10452,40.836362,-73.918157,West Concourse
3515,183 STANHOPE STREET,2020-01-23,Residential,BROOKLYN,11237,40.699534,-73.921596,Bushwick North
3517,3569 BROADWAY,2020-02-10,Residential,MANHATTAN,10031,40.827325,-73.949807,Hamilton Heights
3524,345 EAST 94TH STREET,2020-01-24,Residential,MANHATTAN,10128,40.782486,-73.946934,Yorkville
3525,345 EAST 94TH STREET,2020-01-24,Residential,MANHATTAN,10128,40.782486,-73.946934,Yorkville
3528,281 ALEXANDER AVENUE,2020-01-30,Residential,BRONX,10454,40.810904,-73.924532,Mott Haven-Port Morris
3547,1343-45 PROSPECT AVENUE,2020-01-06,Residential,BRONX,10459,40.829714,-73.89746,Morrisania-Melrose
3548,1343-45 PROSPECT AVENUE,2020-01-06,Residential,BRONX,10459,40.829714,-73.89746,Morrisania-Melrose
3617,1563 VYSE AVE,2020-01-07,Residential,BRONX,10460,40.834376,-73.887403,Crotona Park East
3618,1605 HONE AVENUE,2020-03-10,Residential,BRONX,10461,40.845983,-73.852458,Van Nest-Morris Park-Westchester Square
3619,1605 HONE AVENUE,2020-03-10,Residential,BRONX,10461,40.845983,-73.852458,Van Nest-Morris Park-Westchester Square
3733,ONE CROSS ISLAND PLAZA SUITE 106,2020-01-14,Commercial,QUEENS,11422,40.673722,-73.732279,Rosedale
3750,961 LEXINGTON AVENUE   GROUND FL,2020-01-14,Commercial,MANHATTAN,10021,40.769016,-73.963219,Upper East Side-Carnegie Hill
3764,2475 SOUTHERN BLVD,2020-01-09,Residential,BRONX,10458,40.855263,-73.881139,Belmont
3782,592 EASTERN PARKWAY,2020-01-17,Residential,BROOKLYN,11225,40.669774,-73.948967,Crown Heights South
3835,96-10 57TH AVENUE,2020-01-10,Residential,QUEENS,11368,40.736982,-73.864614,Corona
3884,183 STANHOPE STREET,2020-01-23,Residential,BROOKLYN,11237,40.699534,-73.921596,Bushwick North
3944,602-618 OCEAN PKWY,2020-02-19,Residential,BROOKLYN,11218,40.633614,-73.972269,Kensington-Ocean Parkway
3968,760 ELDERT LANE,2020-03-03,Residential,BROOKLYN,11208,40.671675,-73.863381,East New York
3976,3448 WILSON AVENUE,2020-01-21,Residential,BRONX,10469,40.876145,-73.851165,Eastchester-Edenwald-Baychester
3979,2200 MORRIS AVENUE,2020-01-24,Residential,BRONX,10453,40.856367,-73.903008,Fordham South
3982,152-09 88TH AVENUE,2020-03-11,Residential,QUEENS,11432,40.706176,-73.804371,Briarwood-Jamaica Hills
3989,976 ANDERSON AVENUE,2020-02-24,Residential,BRONX,10452,40.831732,-73.927573,Highbridge
4005,117-14 UNION    TURN PIKE,2020-01-13,Residential,QUEENS,11415,40.711764,-73.835654,Kew Gardens
4010,1959 MCGRAW AVENUE,2020-01-08,Residential,BRONX,10462,40.834938,-73.858741,Parkchester
4041,32-48 108TH STREET,2020-03-11,Residential,QUEENS,11369,40.758909,-73.861206,East Elmhurst
4044,62-39 ALDERTON STREET,2020-03-05,Residential,QUEENS,11374,40.727341,-73.868047,Rego Park
4073,647 EAST 223RD ST,2020-03-10,Residential,BRONX,10466,40.886958,-73.862978,Williamsbridge-Olinville
4091,1886 WOODBINE ST,2020-02-21,Residential,QUEENS,11385,40.704023,-73.905249,Ridgewood
4096,383 E. 162ND STREET,2020-01-09,Residential,BRONX,10451,40.824952,-73.913944,East Concourse-Concourse Village
4098,1-29 BOGARDUS PLACE,2020-02-06,Residential,MANHATTAN,10040,40.858857,-73.929792,Washington Heights North
4198,15 WEST 139TH STREET,2020-03-05,Residential,MANHATTAN,10037,40.81559,-73.936373,Central Harlem North-Polo Grounds
4217,1078 EAST 84TH ST,2020-02-10,Residential,BROOKLYN,11236,40.63434,-73.90698,Canarsie
4256,23-94 MOTT AVENUE,2020-02-20,Residential,QUEENS,11691,40.607114,-73.762251,Far Rockaway-Bayswater
4274,47B MOULTRIE STREET A/K/A 202 MESEROLE AVENUE,2020-02-04,Commercial,BROOKLYN,11222,40.728434,-73.946508,Greenpoint
4329,3080 PARK AVENUE,2020-01-30,Residential,BRONX,10451,40.823067,-73.918817,Melrose South-Mott Haven North
4354,353 BEACH 70TH ST,2020-01-31,Residential,QUEENS,11692,40.591794,-73.798999,Hammels-Arverne-Edgemere
4357,1177 ANDERSON AVENUE,2020-02-21,Residential,BRONX,10452,40.836223,-73.924153,Highbridge
4363,105 BARUCH DRIVE,2020-02-18,Residential,MANHATTAN,10002,40.718697,-73.977475,Lower East Side
4373,1-11 MARBLE HILL AVENUE,2020-03-13,Residential,MANHATTAN,10463,40.874862,-73.910845,Marble Hill-Inwood
4374,1-11 MARBLE HILL AVENUE,2020-03-13,Residential,MANHATTAN,10463,40.874862,-73.910845,Marble Hill-Inwood
4397,410 GRAND STREET,2020-01-07,Residential,MANHATTAN,10002,40.715916,-73.98657,Lower East Side
4423,1849 SEDGWICK AVENUE,2020-02-11,Residential,BRONX,10453,40.853212,-73.918082,University Heights-Morris Heights
4426,1035 PRESIDENT ST,2020-02-07,Residential,BROOKLYN,11225,40.668588,-73.95701,Crown Heights South
4506,550 EAST 170TH ST,2020-03-10,Residential,BRONX,10456,40.834802,-73.90266,Claremont-Bathgate
4509,1493 SHORE PARKWAY,2020-02-24,Residential,BROOKLYN,11214,40.597767,-74.004436,Bath Beach
4515,2406 UNIVERSITY AVE,2020-01-02,Residential,BRONX,10468,40.863088,-73.904708,Kingsbridge Heights
4535,445 EAST 80TH STREET,2020-01-28,Residential,MANHATTAN,10075,40.772492,-73.95091,Yorkville
4550,2086 BRONX PARK EAST,2020-03-10,Residential,BRONX,10462,40.853169,-73.868972,Pelham Parkway
4560,2036 BATHGATE AVENUE,2020-03-03,Residential,BRONX,10457,40.849919,-73.895434,Claremont-Bathgate
4570,2541 7TH AVENUE,2020-03-02,Residential,MANHATTAN,10039,40.823024,-73.938049,Central Harlem North-Polo Grounds
4580,905 EAST 38TH STREET,2020-02-24,Residential,BROOKLYN,11210,40.633198,-73.939959,East Flatbush-Farragut
4606,679 WOODWARD AVENUE,2020-01-13,Residential,QUEENS,11385,40.705176,-73.906146,Ridgewood
4620,40 RICHMAN PLAZA,2020-01-02,Residential,BRONX,10453,40.852084,-73.922436,University Heights-Morris Heights
4639,53 HULL STREET,2020-03-02,Residential,BROOKLYN,11233,40.679048,-73.915228,Ocean Hill
4674,2900 WEST 8TH STREET,2020-01-10,Residential,BROOKLYN,11224,40.577717,-73.976403,West Brighton
4701,214 ROCKAWAY PARKWAY,2020-01-08,Residential,BROOKLYN,11212,40.661834,-73.920931,Brownsville
4708,2555 GRAND CONCOURSE,2020-01-23,Residential,BRONX,10468,40.863618,-73.896262,Bedford Park-Fordham North
4709,2555 GRAND CONCOURSE,2020-01-23,Residential,BRONX,10468,40.863618,-73.896262,Bedford Park-Fordham North
4713,16 E. 58TH STREET,2020-02-21,Residential,BROOKLYN,11203,40.655006,-73.92291,Rugby-Remsen Village
4741,1730 EAST 18TH STREET,2020-01-10,Residential,BROOKLYN,11229,40.607711,-73.955183,Madison
4744,137-06 GUY R. BREWER BLVD,2020-01-06,Residential,QUEENS,11434,40.671652,-73.774379,Springfield Gardens North
4767,901 EAST 106TH STREET,2020-01-08,Residential,BROOKLYN,11236,40.647736,-73.893707,Canarsie
4772,3756 NEPTUNE AVENUE,2020-01-07,Residential,BROOKLYN,11224,40.576739,-74.004503,Seagate-Coney Island
4774,124 EAST 176TH ST.,2020-01-03,Commercial,BRONX,10453,40.848108,-73.90906,Mount Hope
4813,715 EAST 32ND STREET,2020-01-06,Residential,BROOKLYN,11210,40.633533,-73.945795,Flatbush
4825,867 KNICKERBOCKER   AVENUE,2020-01-06,Residential,BROOKLYN,11207,40.691427,-73.905364,Bushwick North
4837,2828 WEST 28TH STREET,2020-02-13,Residential,BROOKLYN,11224,40.57703,-73.9946,Seagate-Coney Island
4846,1137 RALPH AVENUE,2020-02-13,Residential,BROOKLYN,11236,40.647615,-73.920237,Rugby-Remsen Village
4870,1221 VYSE AVENUE,2020-01-14,Residential,BRONX,10459,40.829018,-73.889942,Morrisania-Melrose
4901,170 HAWTHORNE STREET,2020-01-09,Residential,BROOKLYN,11225,40.657556,-73.954746,Prospect Lefferts Gardens-Wingate
4916,171A RIDGEWOOD AVE APT. 1,2020-02-10,Residential,BROOKLYN,11208,40.683171,-73.882384,Cypress Hills-City Line
4917,55 HOLLAND AVENUE,2020-02-11,Residential,STATEN ISLAND,10303,40.638993,-74.171244,Mariner's Harbor-Arlington-Port Ivory-Graniteville
4938,1493 PARK PLACE - APT 4B,2020-03-13,Residential,BROOKLYN,11213,40.672194,-73.927548,Crown Heights North
4942,742 HENDRIX STREET,2020-01-16,Residential,BROOKLYN,11207,40.663282,-73.886607,East New York (Pennsylvania Ave)
4947,250 EAST 95TH STREET,2020-01-06,Residential,BROOKLYN,11212,40.66041,-73.922226,Rugby-Remsen Village
4960,66-07 ALDERTON ST,2020-01-02,Residential,QUEENS,11374,40.719316,-73.859091,Rego Park
4963,628 ELDERT LANE,2020-02-21,Residential,BROOKLYN,11208,40.67481,-73.864106,East New York
4997,111-05 LEFFERTS BLVD,2020-02-03,Residential,QUEENS,11420,40.680238,-73.821216,South Ozone Park
5033,1536 GATES AVE.,2020-01-22,Residential,BROOKLYN,11237,40.699069,-73.912642,Bushwick North
5046,555 WILSON AVENUE,2020-01-08,Residential,BROOKLYN,11207,40.691403,-73.909356,Bushwick North
5101,510 QUINCY STREET,2020-01-15,Residential,BROOKLYN,11221,40.688127,-73.94045,Stuyvesant Heights
5147,1301 EAST 98TH ST,2020-03-02,Residential,BROOKLYN,11236,40.640481,-73.8956,Canarsie
5207,3462 THIRD AVENUE,2020-03-10,Residential,BRONX,10456,40.829862,-73.906374,Claremont-Bathgate
5255,57-15 SHORE FRONT PARKWAY,2020-01-22,Residential,QUEENS,11692,40.592112,-73.787819,Hammels-Arverne-Edgemere
5263,242 MALDEN PLACE,2020-03-02,Residential,STATEN ISLAND,10306,40.562505,-74.117202,Oakwood-Oakwood Beach
5310,140 PARKHILL AVE.,2020-01-17,Residential,STATEN ISLAND,10304,40.61634,-74.081184,Grymes Hill-Clifton-Fox Hills
5312,301 EAST GUNHILL ROAD,2020-01-14,Residential,BRONX,10467,40.879033,-73.874248,Norwood
5313,301 EAST GUNHILL ROAD,2020-01-14,Residential,BRONX,10467,40.879033,-73.874248,Norwood
5335,6-20 127TH STREET,2020-03-05,Residential,QUEENS,11356,40.79127,-73.840842,College Point
5338,338 WYONA STREET,2020-03-13,Residential,BROOKLYN,11207,40.670476,-73.892579,East New York (Pennsylvania Ave)
5346,42-25 65TH PLACE,2020-03-05,Residential,QUEENS,11377,40.742785,-73.899207,Woodside
5355,1750 EAST 172ND ST,2020-01-23,Residential,BRONX,10472,40.832625,-73.868901,West Farms-Bronx River
5442,362-364 WEST 23RD ST REET,2020-02-06,Residential,MANHATTAN,10011,40.745999,-74.000177,Hudson Yards-Chelsea-Flatiron-Union Square
5451,2911 BARNES AVENUE,2020-01-24,Residential,BRONX,10467,40.868234,-73.863443,Bronxdale
5480,93 PERRY STREET,2020-03-06,Residential,MANHATTAN,10014,40.735261,-74.005283,West Village
5536,8750 BAY PARKWAY,2020-02-10,Residential,BROOKLYN,11214,40.599068,-73.996817,Bath Beach
5547,1404 NEW YORK AVENUE,2020-02-10,Residential,BROOKLYN,11210,40.638361,-73.945337,Flatbush
5603,42-37 HAMPTON STREET,2020-01-03,Residential,QUEENS,11373,40.744465,-73.877176,Elmhurst
5682,348-350 EAST GUNHILL  ROAD,2020-02-26,Commercial,BRONX,10467,40.878776,-73.872874,Norwood
5688,25-14 HOFFMAN STREET,2020-03-05,Commercial,BRONX,10458,40.858498,-73.886256,Belmont
5728,537 TINTON AVENUE,2020-02-07,Residential,BRONX,10455,40.812405,-73.906435,Mott Haven-Port Morris
5729,537 TINTON AVENUE,2020-02-07,Residential,BRONX,10455,40.812405,-73.906435,Mott Haven-Port Morris
5734,1502 MOTT AVENUE,2020-01-13,Residential,QUEENS,11691,40.602038,-73.748876,Far Rockaway-Bayswater
5739,650 LENOX AVENUE,2020-02-05,Residential,MANHATTAN,10037,40.818783,-73.936746,Central Harlem North-Polo Grounds
5746,1818 ANTHONY AVENUE,2020-01-13,Residential,BRONX,10457,40.846709,-73.903781,Mount Hope
5775,810 EAST 152ND STREE T,2020-01-07,Residential,BRONX,10455,40.815435,-73.905199,Melrose South-Mott Haven North
5778,43-24 41ST STREET,2020-03-02,Residential,QUEENS,11104,40.744936,-73.923102,Hunters Point-Sunnyside-West Maspeth
5784,730 EAST 236TH ST,2020-01-30,Residential,BRONX,10466,40.895226,-73.854938,Woodlawn-Wakefield
5789,1639 CENTRE STREET   UNIT 208,2020-01-06,Commercial,QUEENS,11385,40.697234,-73.904548,Ridgewood
5808,609 E 40TH STREET,2020-03-13,Residential,BROOKLYN,11203,40.640583,-73.938867,East Flatbush-Farragut
5814,2620 OCEAN PARKWAY,2020-03-03,Residential,BROOKLYN,11235,40.586171,-73.966276,Gravesend
5892,164-18 69TH AVENUE,2020-02-07,Commercial,QUEENS,11365,40.733075,-73.804646,Pomonok-Flushing Heights-Hillcrest
5906,1611 UNIVERSITY AVENUE,2020-03-10,Residential,BRONX,10453,40.847219,-73.920085,University Heights-Morris Heights
5907,1611 UNIVERSITY AVENUE,2020-03-10,Residential,BRONX,10453,40.847219,-73.920085,University Heights-Morris Heights
5918,120 WEST 183RD STREET,2020-01-24,Residential,BRONX,10453,40.859892,-73.91015,Kingsbridge Heights
5924,840 GRAND CONCOURSE,2020-02-19,Residential,BRONX,10451,40.825922,-73.923153,East Concourse-Concourse Village
5925,840 GRAND CONCOURSE,2020-02-19,Residential,BRONX,10451,40.825922,-73.923153,East Concourse-Concourse Village
5927,8 VANDERBILT AVENUE,2020-03-11,Commercial,BROOKLYN,11205,40.69746,-73.97071,Fort Greene
5938,153-30 89TH AVE,2020-01-27,Residential,QUEENS,11432,40.705517,-73.802501,Jamaica
5970,24 FORD STREET,2020-01-29,Residential,BROOKLYN,11213,40.665388,-73.929365,Crown Heights North
6003,504 LAGUARDIA PLACE,2020-02-27,Commercial,MANHATTAN,10012,40.727562,-73.999397,West Village
6004,504 LAGUARDIA PLACE,2020-02-27,Commercial,MANHATTAN,10012,40.727562,-73.999397,West Village
6011,1084 NEW YORK AVENUE,2020-01-22,Residential,BROOKLYN,11203,40.646604,-73.946228,Erasmus
6019,827 LINCOLN PLACE,2020-01-10,Residential,BROOKLYN,11216,40.670682,-73.949056,Crown Heights North
6078,2056 MADISON AVENUE,2020-02-04,Commercial,MANHATTAN,10035,40.808815,-73.938417,Central Harlem North-Polo Grounds
6137,2505 BEDFORD AVENUE,2020-02-24,Residential,BROOKLYN,11226,40.642216,-73.954443,Erasmus
6147,1517 WALTON AVENUE,2020-02-20,Residential,BRONX,10452,40.841991,-73.914218,West Concourse
6160,1900-6 BELMONT AVE,2020-03-10,Residential,BRONX,10457,40.844883,-73.8928,East Tremont
6205,563 BEACH 67TH STREET,2020-02-14,Residential,QUEENS,11692,40.596157,-73.796502,Hammels-Arverne-Edgemere
6246,568 UNION AVENUE,2020-02-06,Residential,BROOKLYN,11211,40.71749,-73.952173,North Side-South Side
6249,265 EAST 176TH ST,2020-01-07,Residential,BRONX,10457,40.847382,-73.904373,Mount Hope
6253,2186 FIFTH AVENUE,2020-02-05,Residential,MANHATTAN,10037,40.811593,-73.938494,Central Harlem North-Polo Grounds
6271,2393 WALTON AVENUE,2020-01-23,Residential,BRONX,10468,40.86096,-73.901219,Fordham South
6272,2393 WALTON AVENUE,2020-01-23,Residential,BRONX,10468,40.86096,-73.901219,Fordham South
6306,54-76 82ND STREET,2020-02-24,Residential,QUEENS,11373,40.730881,-73.882722,Elmhurst
6329,134-45 155TH STREET,2020-01-27,Residential,QUEENS,11434,40.670612,-73.781213,Springfield Gardens North
6337,229 CHERRY STREET,2020-02-25,Residential,MANHATTAN,10002,40.711071,-73.990827,Lower East Side
6342,536 PENNSYLVANIA AVE NUE,2020-01-08,Residential,BROOKLYN,11207,40.664076,-73.89388,East New York (Pennsylvania Ave)
6360,313 EAST 163RD STREET,2020-01-09,Residential,BRONX,10451,40.826765,-73.915972,East Concourse-Concourse Village
6361,313 EAST 163RD STREET,2020-01-09,Residential,BRONX,10451,40.826765,-73.915972,East Concourse-Concourse Village
6390,1505 WALTON AVENUE,2020-02-13,Residential,BRONX,10452,40.841788,-73.914367,West Concourse
6394,574 WEST 176TH ST,2020-03-10,Residential,MANHATTAN,10033,40.845828,-73.93544,Washington Heights South
6401,105 LINCOLN ROAD,2020-02-13,Residential,BROOKLYN,11225,40.661063,-73.959026,Prospect Lefferts Gardens-Wingate
6408,805 ST. MARKS AVENUE,2020-02-07,Residential,BROOKLYN,11213,40.674976,-73.945628,Crown Heights North
6427,202 EAST 91ST STREET,2020-01-17,Residential,BROOKLYN,11212,40.659564,-73.926199,Rugby-Remsen Village
6435,2929 WEST 31ST STREET,2020-02-06,Residential,BROOKLYN,11224,40.575048,-73.997455,Seagate-Coney Island
6458,455 SCHENECTADY AVE,2020-01-08,Residential,BROOKLYN,11203,40.662693,-73.934471,Prospect Lefferts Gardens-Wingate
6474,4815 CHURCH AVENUE,2020-01-13,Residential,BROOKLYN,11203,40.651666,-73.932089,East Flatbush-Farragut
6483,1835 NEEDHAM AVENUE,2020-01-21,Residential,BRONX,10466,40.881199,-73.843715,Eastchester-Edenwald-Baychester
6488,100 ROSS STREET,2020-02-04,Residential,BROOKLYN,11249,40.703951,-73.963136,Williamsburg
6489,11 EAST 78TH STREET,2020-01-07,Residential,MANHATTAN,10021,40.776062,-73.963609,Upper East Side-Carnegie Hill
6496,504 WEST 135TH STREET APARTMENT 4C,2020-02-26,Residential,MANHATTAN,10031,40.819139,-73.9527,Manhattanville
6513,3109 ROBERTS AVE,2020-02-06,Residential,BRONX,10461,40.846388,-73.82828,Pelham Bay-Country Club-City Island
6558,617 WEST 143RD   STR EET,2020-01-07,Residential,MANHATTAN,10031,40.82535,-73.951879,Hamilton Heights
6566,66-11 99TH STREET,2020-02-07,Residential,QUEENS,11374,40.728036,-73.854732,Forest Hills
6573,522 QUINCY STREET,2020-02-21,Residential,BROOKLYN,11221,40.688168,-73.940079,Stuyvesant Heights
6580,34-19 30TH STREET,2020-01-22,Residential,QUEENS,11106,40.759615,-73.928391,Astoria
6584,1215 BEDFORD AVENUE,2020-01-15,Commercial,BROOKLYN,11216,40.681751,-73.95358,Bedford
6609,25-98 STEINWAY STREET,2020-02-13,Residential,QUEENS,11103,40.767514,-73.912061,Astoria
6684,1767 WEEKS AVENUE,2020-03-10,Residential,BRONX,10457,40.845884,-73.90748,Mount Hope
6691,518 SHEFFIELD AVENUE,2020-01-17,Residential,BROOKLYN,11207,40.664077,-73.894892,East New York (Pennsylvania Ave)
6702,264 EAST 28 STREET,2020-02-13,Residential,BROOKLYN,11226,40.643713,-73.950738,Erasmus
6727,55 EVELYN PLACE,2020-02-03,Residential,BRONX,10468,40.859798,-73.90575,Kingsbridge Heights
6750,74-02 43RD AVENUE,2020-02-28,Residential,QUEENS,11373,40.742288,-73.890395,Elmhurst-Maspeth
6765,863 MELROSE AVENUE,2020-03-04,Residential,BRONX,10451,40.823854,-73.914032,Morrisania-Melrose
6766,863 MELROSE AVENUE,2020-03-04,Residential,BRONX,10451,40.823854,-73.914032,Morrisania-Melrose
6776,753 EAST 228TH STREET,2020-02-28,Residential,BRONX,10466,40.889454,-73.857794,Williamsbridge-Olinville
6777,753 EAST 228TH STREET,2020-02-28,Residential,BRONX,10466,40.889454,-73.857794,Williamsbridge-Olinville
6779,804 EAST 216TH STREET,2020-02-25,Residential,BRONX,10467,40.880378,-73.86059,Williamsbridge-Olinville
6780,804 EAST 216TH STREET,2020-02-25,Residential,BRONX,10467,40.880378,-73.86059,Williamsbridge-Olinville
6781,483 EAST 93RD STREET,2020-01-23,Residential,BROOKLYN,11212,40.65519,-73.918819,Rugby-Remsen Village
6800,902 DREW STREET,2020-02-13,Residential,BROOKLYN,11208,40.667823,-73.86049,East New York
6807,1155 EAST 165TH STRE ET,2020-02-04,Residential,BRONX,10459,40.825261,-73.887195,Hunts Point
6871,639 ALBANY AVENUE,2020-01-29,Residential,BROOKLYN,11203,40.658779,-73.939586,Prospect Lefferts Gardens-Wingate
6930,334 EAST 90TH STREET,2020-01-23,Residential,MANHATTAN,10128,40.780039,-73.948954,Yorkville
6940,2970 WEST 24TH STREET,2020-02-13,Residential,BROOKLYN,11224,40.574134,-73.99081,Seagate-Coney Island
6955,357 STOCKHOLM STREET,2020-03-02,Residential,BROOKLYN,11237,40.704356,-73.918009,Bushwick North
6991,2145 STARLING AVENUE,2020-03-05,Residential,BRONX,10462,40.83621,-73.853708,Parkchester
6992,2145 STARLING AVENUE,2020-03-05,Residential,BRONX,10462,40.83621,-73.853708,Parkchester
6993,7410 RIDGE BOULEVARD,2020-01-29,Residential,BROOKLYN,11209,40.632641,-74.030264,Bay Ridge
7000,1311 COLLEGE AVENUE,2020-03-09,Residential,BRONX,10456,40.835981,-73.911501,East Concourse-Concourse Village
7028,637 MEAD STREET,2020-01-23,Residential,BRONX,10460,40.842678,-73.866286,Van Nest-Morris Park-Westchester Square
7039,1114 STRATFORD AVENU E,2020-02-13,Residential,BRONX,10472,40.827343,-73.875054,Soundview-Bruckner
7041,88-29 183RD STREET,2020-02-10,Residential,QUEENS,11423,40.713349,-73.778696,Jamaica
7130,285 METROPOLITAN AVENUE,2020-01-14,Commercial,BROOKLYN,11211,40.714638,-73.958062,North Side-South Side
7154,98-01 67TH AVENUE,2020-01-15,Residential,QUEENS,11374,40.72389,-73.855697,Forest Hills
7193,73 WEST 108TH ST,2020-01-30,Residential,MANHATTAN,10025,40.800291,-73.961295,Morningside Heights
7203,4240 BROADWAY,2020-03-12,Commercial,MANHATTAN,10033,40.84963,-73.936293,Washington Heights North
7229,2438 NOSTRAND AVE,2020-02-05,Residential,BROOKLYN,11210,40.625345,-73.946616,Midwood
7239,91-03 215TH PLACE,2020-01-21,Residential,QUEENS,11428,40.722802,-73.744547,Queens Village
7246,209 EAST 118TH STREET,2020-03-02,Residential,MANHATTAN,10035,40.799066,-73.938585,East Harlem North
7259,652-666 COURTLANDT A VENUE,2020-03-12,Residential,BRONX,10451,40.819038,-73.91841,Melrose South-Mott Haven North
7271,420 WEST 19TH ST,2020-02-19,Residential,MANHATTAN,10011,40.744368,-74.003934,Hudson Yards-Chelsea-Flatiron-Union Square
7273,43-60 DOUGLASTON PARKWAY,2020-01-22,Residential,QUEENS,11363,40.766788,-73.746057,Douglas Manor-Douglaston-Little Neck
7276,1218 WARD AVENUE,2020-01-06,Residential,BRONX,10472,40.829481,-73.877464,West Farms-Bronx River
7277,1218 WARD AVENUE,2020-01-06,Residential,BRONX,10472,40.829481,-73.877464,West Farms-Bronx River
7312,1175 FINDLAY AVENUE,2020-02-13,Residential,BRONX,10456,40.832271,-73.912652,East Concourse-Concourse Village
7314,235-15 BENTLEY ROAD,2020-01-10,Residential,QUEENS,11422,40.654285,-73.74748,Springfield Gardens South-Brookville
7325,42-25C VERNON BLVD.,2020-01-15,Commercial,QUEENS,11101,40.753813,-73.949693,Hunters Point-Sunnyside-West Maspeth
7355,1447 EAST 108TH STREET,2020-02-05,Residential,BROOKLYN,11236,40.639881,-73.882489,Canarsie
7394,4578 PARK AVENUE,2020-01-09,Residential,BRONX,10458,40.856664,-73.893999,Claremont-Bathgate
7405,4011 KINGS HIGHWAY,2020-01-15,Residential,BROOKLYN,11234,40.624126,-73.935204,Flatlands
7419,345 MILLER AVENUE,2020-01-06,Residential,BROOKLYN,11207,40.672316,-73.891134,East New York
7432,539 MACON STREET,2020-03-11,Residential,BROOKLYN,11233,40.683328,-73.930175,Stuyvesant Heights
7440,41-35 45TH STREET,2020-01-23,Residential,QUEENS,11104,40.746388,-73.91899,Hunters Point-Sunnyside-West Maspeth
7469,2143 STORY AVENUE,2020-03-09,Residential,BRONX,10473,40.825237,-73.851214,Westchester-Unionport
7470,2143 STORY AVENUE,2020-03-09,Residential,BRONX,10473,40.825237,-73.851214,Westchester-Unionport
7489,100 WILLOUGHBY STREE T,2020-01-06,Residential,BROOKLYN,11201,40.692126,-73.9847,DUMBO-Vinegar Hill-Downtown Brooklyn-Boerum Hill
7532,990 MONTGOMERY ST.,2020-01-06,Residential,BROOKLYN,11213,40.664374,-73.932246,Crown Heights South
7543,42-13 23RD AVENUE,2020-03-02,Residential,QUEENS,11105,40.769892,-73.906524,Steinway
7549,1195 BOSTON ROAD,2020-02-06,Residential,BRONX,10456,40.829205,-73.9027,Morrisania-Melrose
7630,1519 LINCOLN PLACE,2020-02-26,Residential,BROOKLYN,11213,40.669495,-73.926426,Crown Heights North
7637,155-52 116TH DRIVE,2020-02-26,Residential,QUEENS,11434,40.683085,-73.787644,Baisley Park
7649,250 EAST GUN HILL RO AD,2020-02-11,Residential,BRONX,10467,40.879919,-73.876087,Norwood
7660,74-12 35TH AVENUE,2020-02-10,Residential,QUEENS,11372,40.751018,-73.8919,Jackson Heights
7667,1682 SEWARD AVENUE,2020-01-30,Residential,BRONX,10473,40.818369,-73.86895,Soundview-Castle Hill-Clason Point-Harding Park
7670,1127 NAMEOKE STREET,2020-02-26,Residential,QUEENS,11691,40.60499,-73.749524,Far Rockaway-Bayswater
7671,1077 CASTLETON AVE,2020-03-06,Residential,STATEN ISLAND,10310,40.634451,-74.118543,West New Brighton-New Brighton-St. George
7692,1711 MORRIS AVENUE,2020-01-23,Residential,BRONX,10457,40.844521,-73.909411,Mount Hope
7699,261 55TH STREET,2020-01-06,Residential,BROOKLYN,11220,40.645547,-74.018583,Sunset Park West
7761,152-15 84TH ROAD,2020-02-18,Residential,QUEENS,11432,40.713363,-73.807925,Briarwood-Jamaica Hills
7804,99-21 205TH PLACE,2020-02-03,Residential,QUEENS,11423,40.71255,-73.754368,Hollis
7806,22 WEST 25TH STREET,2020-03-03,Residential,MANHATTAN,10010,40.743366,-73.989964,Hudson Yards-Chelsea-Flatiron-Union Square
7821,300 EAST 158TH STREET,2020-01-30,Residential,BRONX,10451,40.823118,-73.917512,Melrose South-Mott Haven North
7875,2741 HOMECREST AVE.,2020-01-24,Commercial,BROOKLYN,11235,40.584301,-73.956268,Sheepshead Bay-Gerritsen Beach-Manhattan Beach
7881,210 LIVINGSTON STREET AKA 45 HOYT STREET,2020-03-11,Residential,BROOKLYN,11201,40.689563,-73.985587,DUMBO-Vinegar Hill-Downtown Brooklyn-Boerum Hill
7895,155-15 N. CONDUIT AVE.,2020-01-29,Residential,QUEENS,11434,40.667616,-73.779421,Springfield Gardens North
7907,900 BAYCHESTER AVE,2020-02-11,Residential,BRONX,10475,40.876904,-73.833705,Co-op City
7933,300 EAST 158TH  STREET,2020-02-05,Commercial,BRONX,10451,40.823118,-73.917512,Melrose South-Mott Haven North
7987,632 HALSEY STREET,2020-01-15,Residential,BROOKLYN,11233,40.684247,-73.928548,Stuyvesant Heights
7997,645 WEST 44TH STREET,2020-03-12,Commercial,MANHATTAN,10036,40.762574,-73.998386,Clinton
7998,645 WEST 44TH STREET,2020-03-12,Commercial,MANHATTAN,10036,40.762574,-73.998386,Clinton
8011,2960 WEST 29TH STREE T,2020-03-02,Residential,BROOKLYN,11224,40.573838,-73.995094,Seagate-Coney Island
8017,31-33 MOUNT HOPE PL,2020-01-30,Residential,BRONX,10453,40.849226,-73.910135,Mount Hope
8049,615 EAST 189TH ST,2020-01-28,Residential,BRONX,10458,40.857139,-73.885532,Belmont
8069,1973 71ST STREET,2020-03-02,Commercial,BROOKLYN,11204,40.613577,-73.990131,Bensonhurst West
8119,105 EAST 168TH STREET,2020-01-13,Residential,BRONX,10452,40.836362,-73.918157,West Concourse
8167,132-06 ATLANTIC AVENUE,2020-02-04,Residential,QUEENS,11419,40.69642,-73.816874,Richmond Hill
8241,118-80 METROPOLITAN AVE,2020-03-06,Residential,QUEENS,11415,40.706308,-73.832353,Kew Gardens
8274,1061 CLAY AVENUE,2020-02-24,Residential,BRONX,10456,40.828774,-73.912627,East Concourse-Concourse Village
8275,1061 CLAY AVENUE,2020-02-24,Residential,BRONX,10456,40.828774,-73.912627,East Concourse-Concourse Village
8293,2020 MONTEREY AVENUE,2020-03-05,Residential,BRONX,10457,40.848449,-73.894185,East Tremont
8315,97 EUCLID AVENUE,2020-02-24,Residential,BROOKLYN,11208,40.686095,-73.874835,Cypress Hills-City Line
8340,240 WEST 167TH STREET,2020-02-13,Commercial,BRONX,10452,40.839706,-73.928623,Highbridge
8341,240 WEST 167TH STREET,2020-02-13,Commercial,BRONX,10452,40.839706,-73.928623,Highbridge
8379,491 FLETCHER PLACE,2020-02-27,Residential,BRONX,10457,40.854139,-73.893631,Claremont-Bathgate
8388,50 EAST 191 STREET,2020-02-18,Residential,BRONX,10468,40.863974,-73.89821,Bedford Park-Fordham North
8398,2200 EAST TREMONT AVENUE,2020-02-26,Residential,BRONX,10462,40.842169,-73.855929,Parkchester
8407,1113 SHERIDAN AVENUE,2020-01-08,Residential,BRONX,10456,40.83188,-73.918051,East Concourse-Concourse Village
8412,371 MACDONOUGH   STR EET,2020-01-10,Residential,BROOKLYN,11233,40.682456,-73.931236,Crown Heights North
8419,81 CRESCENT AVENUE,2020-01-17,Residential,STATEN ISLAND,10301,40.643261,-74.084633,West New Brighton-New Brighton-St. George
8422,836 CROWN STREET - APT C-7,2020-02-13,Residential,BROOKLYN,11213,40.665144,-73.929949,Crown Heights South
8439,611 EAST 149TH ST,2020-03-10,Residential,BRONX,10455,40.813787,-73.911469,Melrose South-Mott Haven North
8442,2065 MORRIS AVENUE,2020-01-22,Residential,BRONX,10453,40.853671,-73.905144,Mount Hope
8443,2065 MORRIS AVENUE,2020-01-22,Residential,BRONX,10453,40.853671,-73.905144,Mount Hope
8470,4123 9TH AVENUE,2020-01-03,Residential,BROOKLYN,11232,40.644648,-73.996436,Sunset Park East
8474,2357 WALTON AVE,2020-02-20,Residential,BRONX,10468,40.859748,-73.901962,Fordham South
8487,109 MADISON STREET,2020-01-07,Residential,MANHATTAN,10002,40.712255,-73.995055,Chinatown
8492,37 WEST 21ST STREET,2020-01-07,Residential,MANHATTAN,10010,40.740822,-73.991819,Hudson Yards-Chelsea-Flatiron-Union Square
8518,2300 GRAND CONCOURSE,2020-02-20,Residential,BRONX,10458,40.857608,-73.899836,Fordham South
8536,145-45 FOCH   BOULEV ARD,2020-01-22,Residential,QUEENS,11436,40.679923,-73.795222,Baisley Park
8569,867 KNICKERBOCKER AVENUE,2020-01-06,Residential,BROOKLYN,11207,40.691427,-73.905364,Bushwick North
8574,1105 COLLEGE AVENUE,2020-01-21,Residential,BRONX,10456,40.830744,-73.914583,East Concourse-Concourse Village
8591,100-49 198TH STREET,2020-02-21,Residential,QUEENS,11423,40.709841,-73.761106,Hollis
8624,207 BAY 17TH STREET,2020-01-06,Residential,BROOKLYN,11214,40.60352,-74.00775,Bath Beach
8656,80 NORTH BURGHER AVE NUE,2020-02-14,Residential,STATEN ISLAND,10310,40.639433,-74.11541,West New Brighton-New Brighton-St. George
8657,366 HERKIMER STREET,2020-02-19,Residential,BROOKLYN,11213,40.679154,-73.940862,Crown Heights North
8659,2064 NOSTRAND AVENUE,2020-03-09,Residential,BROOKLYN,11210,40.63515,-73.947909,Flatbush
8689,24-45 BEACH CHANNEL DRIVE,2020-01-21,Residential,QUEENS,11691,40.60074,-73.761712,Far Rockaway-Bayswater
8703,508 W. 26TH STREET,2020-02-20,Commercial,MANHATTAN,10001,40.749957,-74.003674,Hudson Yards-Chelsea-Flatiron-Union Square
8704,1760 MONTGOMERY AVE,2020-02-06,Residential,BRONX,10453,40.850722,-73.918114,University Heights-Morris Heights
8712,405 EAST 204TH STREE T,2020-02-11,Residential,BRONX,10467,40.870971,-73.876675,Norwood
8725,540 WEST 146TH STREET - APT 32,2020-01-02,Residential,MANHATTAN,10031,40.826402,-73.948315,Hamilton Heights
8782,382 EAST 199 STREET,2020-02-27,Residential,BRONX,10458,40.867357,-73.884903,Bedford Park-Fordham North
8783,2275 DAVIDSON AVENUE,2020-02-18,Residential,BRONX,10468,40.858856,-73.904783,Kingsbridge Heights
8796,100 WEST 128TH STREE T,2020-03-05,Residential,MANHATTAN,10027,40.809877,-73.944542,Central Harlem North-Polo Grounds
8873,1227 WHITE PLAINS ROAD,2020-03-02,Residential,BRONX,10472,40.831362,-73.862016,Soundview-Bruckner
8874,1227 WHITE PLAINS ROAD,2020-03-02,Residential,BRONX,10472,40.831362,-73.862016,Soundview-Bruckner
8879,143-40 ROOSEVELT AVE,2020-03-13,Residential,QUEENS,11354,40.761368,-73.822998,Flushing
8881,388 EAST 2ND STREET,2020-03-11,Residential,BROOKLYN,11218,40.641808,-73.978063,Kensington-Ocean Parkway
8889,2399 GRAND CONCOURSE,2020-01-16,Residential,BRONX,10468,40.860055,-73.898451,Fordham South
8919,921 MONTGOMERY ST,2020-01-28,Residential,BROOKLYN,11213,40.664482,-73.933893,Crown Heights South
8925,112-44 38 AVENUE,2020-03-09,Residential,QUEENS,11368,40.753667,-73.85503,Corona
8946,3106 ATLANTIC AVENUE,2020-02-13,Residential,BROOKLYN,11208,40.679121,-73.880541,East New York
8951,150-40 59TH AVENUE,2020-01-14,Residential,QUEENS,11355,40.741827,-73.818521,Queensboro Hill
8960,51 WEST 86TH STREET,2020-02-24,Residential,MANHATTAN,10024,40.786044,-73.971097,Upper West Side
8962,1466 E GUNHILL RD,2020-02-19,Residential,BRONX,10469,40.869029,-73.843494,Allerton-Pelham Gardens
8990,306 MACDOUGAL STREET,2020-01-22,Residential,BROOKLYN,11233,40.680598,-73.908098,Ocean Hill
9032,424 CLINTON STREET APT 2L,2020-02-10,Residential,BROOKLYN,11231,40.682071,-73.998309,Carroll Gardens-Columbia Street-Red Hook
9034,234 BRADHURST AVENUE,2020-01-07,Residential,MANHATTAN,10039,40.828745,-73.939052,Central Harlem North-Polo Grounds
9040,1633 HANCOCK STREET,2020-02-07,Residential,QUEENS,11385,40.697971,-73.906073,Ridgewood
9042,652 EAST 187TH ST,2020-02-18,Residential,BRONX,10458,40.854779,-73.886017,Belmont
9053,384 EAST 194TH ST,2020-01-23,Residential,BRONX,10458,40.86333,-73.889914,Belmont
9054,221 EAST 124TH ST,2020-02-27,Residential,MANHATTAN,10035,40.802753,-73.935645,East Harlem North
9086,35 CLARKSON AVENUE,2020-03-09,Residential,BROOKLYN,11226,40.654928,-73.958395,Prospect Lefferts Gardens-Wingate
9088,443 EAST 180TH STREET,2020-02-28,Residential,BRONX,10457,40.851764,-73.896429,Claremont-Bathgate
9089,443 EAST 180TH STREET,2020-02-28,Residential,BRONX,10457,40.851764,-73.896429,Claremont-Bathgate
9103,2828 WEST 28TH ST,2020-01-14,Residential,BROOKLYN,11224,40.57703,-73.9946,Seagate-Coney Island
9130,2315 65TH STREET,2020-01-17,Residential,BROOKLYN,11204,40.61225,-73.97879,Bensonhurst East
9153,2412 HEALY AVE - HOUSE,2020-02-14,Residential,QUEENS,11691,40.604892,-73.762536,Far Rockaway-Bayswater
9223,2530 FOSTER AVENUE,2020-01-06,Residential,BROOKLYN,11210,40.638438,-73.952799,Flatbush
9237,1030 OCEAN AVENUE,2020-03-13,Residential,BROOKLYN,11226,40.637277,-73.95859,Flatbush
9258,441 EAST 20TH STREET,2020-01-28,Residential,MANHATTAN,10010,40.734214,-73.978285,Stuyvesant Town-Cooper Village
9274,85-40 105TH STREET,2020-01-27,Residential,QUEENS,11418,40.698188,-73.843491,Richmond Hill
9279,465 EAST 93RD STREET,2020-02-26,Residential,BROOKLYN,11212,40.655385,-73.919039,Rugby-Remsen Village
9286,230 EAST 80TH STREET STORE #1,2020-02-28,Commercial,MANHATTAN,10075,40.774615,-73.955984,Yorkville
9292,804 EAST 216TH STREET,2020-02-25,Residential,BRONX,10467,40.880378,-73.86059,Williamsbridge-Olinville
9293,804 EAST 216TH STREET,2020-02-25,Residential,BRONX,10467,40.880378,-73.86059,Williamsbridge-Olinville
9301,2274 GRAND CONCOURSE,2020-01-23,Residential,BRONX,10457,40.857172,-73.900093,Fordham South
9324,1267 NEW YORK AVE ROOM 1,2020-01-15,Residential,BROOKLYN,11203,40.642094,-73.94572,East Flatbush-Farragut
9374,90-05 161ST STREET,2020-02-21,Residential,QUEENS,11432,40.705207,-73.799256,Jamaica
9421,194-01 A 64TH CIRCLE,2020-01-31,Residential,QUEENS,11365,40.740465,-73.781919,Fresh Meadows-Utopia
9427,71 WEST 174TH STREET,2020-01-21,Residential,BRONX,10453,40.847252,-73.916431,University Heights-Morris Heights
9444,1128 GRANT AVENUE,2020-01-14,Residential,BRONX,10456,40.831607,-73.916129,East Concourse-Concourse Village
9466,230 BEACH 32ND STREET,2020-01-22,Residential,QUEENS,11691,40.594987,-73.764473,Hammels-Arverne-Edgemere
9476,4054 CARPENTER AVENUE,2020-02-06,Residential,BRONX,10466,40.891002,-73.862069,Williamsbridge-Olinville
9477,4054 CARPENTER AVENUE,2020-02-06,Residential,BRONX,10466,40.891002,-73.862069,Williamsbridge-Olinville
9518,31 MARKHAM LANE,2020-02-19,Residential,STATEN ISLAND,10310,40.639034,-74.116274,West New Brighton-New Brighton-St. George
9527,921 42ND STREET,2020-01-03,Residential,BROOKLYN,11219,40.643885,-73.996191,Sunset Park East
9570,419 EAST 93RD STREET,2020-02-10,Residential,MANHATTAN,10128,40.7808,-73.94487,Yorkville
9631,721 EAST 219TH STREET,2020-03-13,Residential,BRONX,10467,40.883317,-73.861962,Williamsbridge-Olinville
9632,721 EAST 219TH STREET,2020-03-13,Residential,BRONX,10467,40.883317,-73.861962,Williamsbridge-Olinville
9636,4338 BYRON AVENUE,2020-02-18,Residential,BRONX,10466,40.896204,-73.85379,Woodlawn-Wakefield
9637,4338 BYRON AVENUE,2020-02-18,Residential,BRONX,10466,40.896204,-73.85379,Woodlawn-Wakefield
9639,104 FORSYTH STREET - APT 3,2020-01-28,Residential,MANHATTAN,10002,40.718546,-73.992763,Chinatown
9672,448 WILLOUGHBY AVE,2020-02-07,Residential,BROOKLYN,11206,40.693588,-73.951574,Bedford
9699,235 SKILLMAN STREET,2020-01-27,Residential,BROOKLYN,11205,40.691329,-73.956451,Clinton Hill
9713,1046 GRANT AVENUE,2020-01-14,Residential,BRONX,10456,40.830068,-73.91703,East Concourse-Concourse Village
9758,68-55 FRESH POND RD,2020-01-23,Residential,QUEENS,11385,40.703773,-73.895613,Ridgewood
9767,172-17 91ST AVENUE,2020-02-04,Residential,QUEENS,11432,40.708653,-73.788014,Jamaica
9777,144-47 228TH STREET,2020-02-03,Residential,QUEENS,11413,40.662903,-73.750914,Springfield Gardens South-Brookville
9780,82-02 45TH AVENUE,2020-02-14,Commercial,QUEENS,11373,40.741624,-73.882768,Elmhurst-Maspeth
9787,81 CRESCENT AVENUE,2020-01-17,Residential,STATEN ISLAND,10301,40.643261,-74.084633,West New Brighton-New Brighton-St. George
9801,679 MAGENTA STREET,2020-02-28,Residential,BRONX,10467,40.875293,-73.867797,Williamsbridge-Olinville
9807,105 EAST 32ND STREET,2020-01-02,Residential,BROOKLYN,11226,40.648182,-73.947361,Erasmus
9852,153 NORFOLK STREET,2020-03-12,Residential,MANHATTAN,10002,40.720425,-73.986335,Chinatown
9863,2055 ST. RAYMOND AVE,2020-02-26,Residential,BRONX,10462,40.837491,-73.855263,Parkchester
9908,2206 VALENTINE AVE,2020-02-19,Residential,BRONX,10457,40.85503,-73.898907,Mount Hope
9939,169 LOTT AVENUE,2020-01-24,Residential,BROOKLYN,11212,40.658036,-73.907181,Brownsville
9945,150 E 44TH STREET,2020-01-22,Residential,MANHATTAN,10017,40.752391,-73.974298,Turtle Bay-East Midtown
9949,2080 LAFONTAINE AVENUE,2020-01-08,Residential,BRONX,10457,40.849351,-73.892615,East Tremont
9950,2080 LAFONTAINE AVENUE,2020-01-08,Residential,BRONX,10457,40.849351,-73.892615,East Tremont
9978,466 E. 26TH STREET,2020-01-30,Residential,BROOKLYN,11226,40.63911,-73.952222,Erasmus
9990,133 WEST 145TH ST,2020-01-02,Residential,MANHATTAN,10039,40.820883,-73.937264,Central Harlem North-Polo Grounds
10043,4606 AVENUE K,2020-01-22,Residential,BROOKLYN,11234,40.625595,-73.931305,Flatlands
10056,902 SAINT JOHN'S PLA,2020-02-11,Residential,BROOKLYN,11216,40.671533,-73.948551,Crown Heights North
10076,471 EAST 45TH STREET,2020-02-24,Residential,BROOKLYN,11203,40.650254,-73.935057,East Flatbush-Farragut
10084,1600 SEDGWICK AVENUE,2020-03-09,Residential,BRONX,10453,40.847902,-73.924288,University Heights-Morris Heights
10089,2078 ARTHUR AVE,2020-01-21,Residential,BRONX,10457,40.848892,-73.891879,East Tremont
10155,320 EAST 42ND ST,2020-03-09,Residential,MANHATTAN,10017,40.74955,-73.971571,Turtle Bay-East Midtown
10156,1405 BROOKLYN AVENUE,2020-03-09,Residential,BROOKLYN,11210,40.638617,-73.942454,East Flatbush-Farragut
10157,3580 WEBSTER AVENUE,2020-02-20,Residential,BRONX,10467,40.881458,-73.870388,park-cemetery-etc-Bronx
10171,60 EAST 93RD STREET,2020-03-03,Residential,BROOKLYN,11212,40.662494,-73.927007,Rugby-Remsen Village
10191,35 MORTON STREET,2020-02-07,Residential,MANHATTAN,10014,40.730933,-74.004885,West Village
10192,35 MORTON STREET,2020-02-07,Residential,MANHATTAN,10014,40.730933,-74.004885,West Village
10207,97-11 HORACE HARDING EXPWY.,2020-02-26,Residential,QUEENS,11368,40.734921,-73.86245,Corona
10215,79 N. OXFORD WALK,2020-02-13,Residential,BROOKLYN,11205,40.695553,-73.97511,Fort Greene
10219,515 WEST 38TH STREET,2020-03-03,Residential,MANHATTAN,10018,40.757461,-73.998105,Hudson Yards-Chelsea-Flatiron-Union Square
10240,302 EAST 126TH STREET,2020-02-03,Residential,MANHATTAN,10035,40.803207,-73.932588,East Harlem North
10241,302 EAST 126TH STREET,2020-02-03,Residential,MANHATTAN,10035,40.803207,-73.932588,East Harlem North
10268,350 SHEFFIELD AVENUE,2020-01-08,Residential,BROOKLYN,11207,40.668475,-73.896017,East New York (Pennsylvania Ave)
10320,235-15 BENTLEY ROAD,2020-01-10,Residential,QUEENS,11422,40.654285,-73.74748,Springfield Gardens South-Brookville
10339,90-09 78TH STREET,2020-01-31,Residential,QUEENS,11421,40.687539,-73.86284,Woodhaven
10342,876 EAST 180TH ST,2020-02-13,Residential,BRONX,10460,40.845244,-73.882979,East Tremont
10369,161-29 JEWEL AVE,2020-01-24,Residential,QUEENS,11365,40.7318,-73.806844,Pomonok-Flushing Heights-Hillcrest
10388,1777 GRAND CONCOURSE,2020-02-25,Residential,BRONX,10453,40.846431,-73.909402,Mount Hope
10432,417 OCEAN AVENUE,2020-01-31,Residential,BROOKLYN,11226,40.652673,-73.961492,Flatbush
10437,5735 KINGS HIGHWAY,2020-02-25,Residential,BROOKLYN,11203,40.651512,-73.923199,Rugby-Remsen Village
10493,38 SIXTH AVENUE,2020-02-10,Residential,BROOKLYN,11217,40.681782,-73.974142,Park Slope-Gowanus
10521,45-15 COLDEN STREET,2020-02-14,Residential,QUEENS,11355,40.750501,-73.823002,Flushing
10576,690 ALBANY AVENUE,2020-01-23,Residential,BROOKLYN,11203,40.657242,-73.939659,Prospect Lefferts Gardens-Wingate
10580,184 KENT AVENUE,2020-01-08,Residential,BROOKLYN,11249,40.718491,-73.963698,North Side-South Side
10592,361 GRANDVIEW AVE.,2020-03-06,Residential,STATEN ISLAND,10303,40.631827,-74.165248,Mariner's Harbor-Arlington-Port Ivory-Graniteville
10647,6 MORNINGSIDE AVENUE,2020-02-27,Residential,MANHATTAN,10026,40.804322,-73.958219,Central Harlem South
10694,2-12 BEACH 91ST ST,2020-03-11,Residential,QUEENS,11691,40.586941,-73.814751,Hammels-Arverne-Edgemere
10702,1295 MORRIS AVENUE,2020-01-06,Residential,BRONX,10456,40.83556,-73.91328,East Concourse-Concourse Village
10712,1178 EAST 224TH STREET,2020-02-11,Residential,BRONX,10466,40.882552,-73.847404,Eastchester-Edenwald-Baychester
10713,1178 EAST 224TH STREET,2020-02-11,Residential,BRONX,10466,40.882552,-73.847404,Eastchester-Edenwald-Baychester
10738,16 VERNON AVENUE,2020-02-25,Residential,BROOKLYN,11206,40.694365,-73.951389,Bedford
10746,102 WEST 183RD STREE T,2020-03-12,Residential,BRONX,10453,40.860108,-73.908758,Kingsbridge Heights
10763,35 MARCY PLACE,2020-01-14,Residential,BRONX,10452,40.838659,-73.917732,West Concourse
10770,132 WEST 129TH ST,2020-01-06,Residential,MANHATTAN,10027,40.810866,-73.944953,Central Harlem North-Polo Grounds
10772,1080 ANDERSON AVENUE,2020-01-28,Residential,BRONX,10452,40.834171,-73.925716,Highbridge
10773,1080 ANDERSON AVENUE,2020-01-28,Residential,BRONX,10452,40.834171,-73.925716,Highbridge
10779,1460 EAST 86TH ST,2020-01-27,Residential,BROOKLYN,11236,40.629227,-73.898741,Canarsie
10797,42-18 31ST AVENUE,2020-02-25,Commercial,QUEENS,11103,40.760454,-73.915276,Astoria
10805,789 GREENE AVENUE,2020-02-04,Commercial,BROOKLYN,11221,40.690049,-73.936907,Stuyvesant Heights
10810,310 94TH STREET,2020-01-15,Residential,BROOKLYN,11209,40.617758,-74.032966,Bay Ridge
10829,5419 6TH AVENUE,2020-01-03,Residential,BROOKLYN,11220,40.641373,-74.010601,Sunset Park East
10871,281 EAST 205TH STREET,2020-03-13,Residential,BRONX,10467,40.874138,-73.878705,Norwood
10872,281 EAST 205TH STREET,2020-03-13,Residential,BRONX,10467,40.874138,-73.878705,Norwood
10883,2833 BARKER AVENUE,2020-01-28,Residential,BRONX,10467,40.867,-73.869194,Bronxdale
10888,233 NAPLES TERRACE,2020-03-02,Residential,BRONX,10463,40.879935,-73.905414,Spuyten Duyvil-Kingsbridge
10927,967 EAST 224TH ST,2020-02-03,Residential,BRONX,10466,40.884736,-73.853403,Williamsbridge-Olinville
10936,250 44 STREET   UNIT 303,2020-03-04,Commercial,BROOKLYN,11232,40.651776,-74.012336,Sunset Park West
10973,246 WEST 150TH ST,2020-02-06,Residential,MANHATTAN,10039,40.825338,-73.938051,Central Harlem North-Polo Grounds
11010,28-09 8TH STREET,2020-03-10,Residential,QUEENS,11102,40.773103,-73.932438,Old Astoria
11014,4169 BRONXWOOD AVE,2020-01-16,Residential,BRONX,10466,40.890765,-73.85208,Williamsbridge-Olinville
11021,50 EAST 172ND STREET,2020-01-08,Residential,BRONX,10452,40.841904,-73.915176,West Concourse
11043,1098 LIBERTY AVENUE AKA 461 AUTUMN AVENUE APT. #1-F,2020-03-05,Residential,BROOKLYN,11208,40.678455,-73.868728,Cypress Hills-City Line
11062,99-22 67TH ROAD,2020-02-05,Residential,QUEENS,11375,40.724226,-73.854217,Forest Hills
11082,155 BEACH FIFTH STREET,2020-01-28,Residential,QUEENS,11691,40.595583,-73.740349,Far Rockaway-Bayswater
11124,1010 EAST 178TH STREET,2020-02-11,Residential,BRONX,10457,40.841412,-73.880463,East Tremont
11163,867 KNICKERBOCKER AVENUE,2020-01-06,Residential,BROOKLYN,11207,40.691427,-73.905364,Bushwick North
11275,150-20 115TH ROAD,2020-01-24,Residential,QUEENS,11434,40.684285,-73.792267,Baisley Park
11279,3333 CORSA AVENUE,2020-02-24,Residential,BRONX,10469,40.875294,-73.846535,Eastchester-Edenwald-Baychester
11280,3333 CORSA AVENUE,2020-02-24,Residential,BRONX,10469,40.875294,-73.846535,Eastchester-Edenwald-Baychester
11290,83-11 DORAN AVENUE,2020-01-23,Residential,QUEENS,11385,40.708773,-73.865779,Glendale
11300,131 EAST 21ST STREET,2020-01-28,Residential,BROOKLYN,11226,40.651281,-73.960171,Flatbush
11346,7 EMERIC COURT,2020-01-31,Residential,STATEN ISLAND,10303,40.637008,-74.150071,Mariner's Harbor-Arlington-Port Ivory-Graniteville
11350,274 EAST 175TH STREET,2020-03-02,Residential,BRONX,10457,40.846661,-73.905219,Mount Hope
11351,274 EAST 175TH STREET,2020-03-02,Residential,BRONX,10457,40.846661,-73.905219,Mount Hope
11382,132 N. OXFORD WALK,2020-02-13,Residential,BROOKLYN,11205,40.694008,-73.975262,Fort Greene
11401,880 COLGATE AVENUE,2020-01-21,Residential,BRONX,10473,40.820846,-73.880196,Soundview-Castle Hill-Clason Point-Harding Park
11408,1545 RHINELANDER AVE,2020-03-10,Residential,BRONX,10461,40.855922,-73.842325,Pelham Parkway
11411,96 WRIGHT STREET,2020-01-06,Residential,STATEN ISLAND,10304,40.627727,-74.079411,Stapleton-Rosebank
11421,11 WEST 172 STREET,2020-01-22,Residential,BRONX,10452,40.842295,-73.916939,West Concourse
11447,1082 GERARD AVENUE,2020-01-03,Residential,BRONX,10452,40.832357,-73.922079,West Concourse
11448,1082 GERARD AVENUE,2020-01-03,Residential,BRONX,10452,40.832357,-73.922079,West Concourse
11474,152-09 88TH AVENUE,2020-01-08,Residential,QUEENS,11432,40.706176,-73.804371,Briarwood-Jamaica Hills
11489,182 MALCOLM X BOULEV ARD,2020-02-05,Residential,BROOKLYN,11221,40.687177,-73.930171,Stuyvesant Heights
11512,83-09 TALBOT STREET,2020-02-11,Residential,QUEENS,11415,40.709608,-73.828723,Kew Gardens
11534,1350 OGDEN AVENUE,2020-02-25,Residential,BRONX,10452,40.841225,-73.925047,Highbridge
11599,2280 GRAND AVENUE A/ K/A 37 WEST 183RD STREET,2020-02-11,Residential,BRONX,10468,40.859342,-73.905501,Kingsbridge Heights
11608,128 EAST 96TH STREET,2020-02-11,Residential,MANHATTAN,10128,40.786089,-73.951481,Upper East Side-Carnegie Hill
11627,100-49 198TH STREET,2020-02-21,Residential,QUEENS,11423,40.709841,-73.761106,Hollis
11652,617 WEST 143RD ST,2020-01-02,Residential,MANHATTAN,10031,40.82535,-73.951879,Hamilton Heights
11658,2257 WESTCHESTER AVE,2020-01-30,Residential,BRONX,10462,40.834402,-73.849755,Westchester-Unionport
11683,16 ELLIOT PLACE,2020-02-13,Residential,BRONX,10452,40.839408,-73.917648,West Concourse
11714,774 ROCKAWAY AVENUE,2020-02-06,Residential,BROOKLYN,11212,40.66071,-73.908457,Brownsville
11721,146-23 GUY R. BREWER BLVD.,2020-01-13,Residential,QUEENS,11434,40.662423,-73.768282,Springfield Gardens South-Brookville
11766,843 E. 222ND ST,2020-01-02,Residential,BRONX,10467,40.884374,-73.857465,Williamsbridge-Olinville
11853,2254 ADAM CLAYTON POWELL JR. BLVD.,2020-03-10,Residential,MANHATTAN,10027,40.813797,-73.944817,Central Harlem North-Polo Grounds
11858,2257 BASSFORD AVENUE,2020-02-04,Residential,BRONX,10457,40.854399,-73.893023,Claremont-Bathgate
11864,114 BOWERY,2020-01-21,Commercial,MANHATTAN,10013,40.718079,-73.995022,SoHo-TriBeCa-Civic Center-Little Italy
11883,47-17 45TH STREET,2020-01-08,Residential,QUEENS,11377,40.740773,-73.920115,Hunters Point-Sunnyside-West Maspeth
11889,950 HOE AVENUE,2020-01-07,Residential,BRONX,10459,40.822091,-73.890318,Hunts Point
11898,416 EAST 137TH ST,2020-03-03,Residential,BRONX,10454,40.808092,-73.922592,Mott Haven-Port Morris
11918,1039 MANOR AVENUE,2020-02-06,Residential,BRONX,10472,40.825131,-73.875513,Soundview-Bruckner
11965,437 KINGSTON AVENUE,2020-01-22,Residential,BROOKLYN,11225,40.663875,-73.942706,Crown Heights South
11967,330 HINSDALE STREET,2020-01-07,Residential,BROOKLYN,11207,40.66684,-73.899405,East New York (Pennsylvania Ave)
11996,43-17 48TH STREET,2020-03-05,Residential,QUEENS,11104,40.74427,-73.916567,Hunters Point-Sunnyside-West Maspeth
12016,3601 KINGS HIGHWAY,2020-01-10,Residential,BROOKLYN,11234,40.62123,-73.939865,Flatlands
12033,950 WOODYCREST AVENU E,2020-02-14,Residential,BRONX,10452,40.831379,-73.928954,Highbridge
12057,1201 OCEAN PARKWAY,2020-02-03,Residential,BROOKLYN,11230,40.619041,-73.969487,Ocean Parkway South
12078,1708 PARK PLACE,2020-01-08,Residential,BROOKLYN,11233,40.671811,-73.920829,Ocean Hill
12115,6 MORNINGSIDE AVENUE,2020-02-27,Residential,MANHATTAN,10026,40.804322,-73.958219,Central Harlem South
12148,3046 WEST 22ND ST.,2020-03-09,Residential,BROOKLYN,11224,40.573555,-73.9886,Seagate-Coney Island
12152,50 EAST 172ND STREET,2020-01-08,Residential,BRONX,10452,40.841904,-73.915176,West Concourse
12156,4325 CARPENTER AVE,2020-02-11,Residential,BRONX,10466,40.897223,-73.858562,Woodlawn-Wakefield
12161,166-40 89TH AVENUE,2020-03-11,Residential,QUEENS,11432,40.708142,-73.795161,Jamaica
12217,128 MARINE AVENUE,2020-01-22,Residential,BROOKLYN,11209,40.61709,-74.035958,Bay Ridge
12222,1205 CHURCH AVENUE,2020-01-10,Commercial,BROOKLYN,11218,40.647405,-73.968277,Flatbush
12223,1121 MORRISON AVENUE,2020-01-23,Residential,BRONX,10472,40.827243,-73.874057,Soundview-Bruckner
12229,110-50 FARMERS BOULE VARD,2020-03-11,Residential,QUEENS,11412,40.702215,-73.766002,St. Albans
12238,1647 MACOMBS ROAD,2020-02-19,Residential,BRONX,10453,40.84754,-73.916242,University Heights-Morris Heights
12239,1647 MACOMBS ROAD,2020-02-19,Residential,BRONX,10453,40.84754,-73.916242,University Heights-Morris Heights
12266,2363 SOUTHERN BLVD,2020-01-28,Residential,BRONX,10460,40.852612,-73.881892,Belmont
12288,2-10 ASTORIA BLVD,2020-01-06,Residential,QUEENS,11102,40.773667,-73.936084,Old Astoria
12290,401 MORGAN AVENUE,2020-03-03,Residential,BROOKLYN,11211,40.717914,-73.936877,East Williamsburg
12310,253 EAST 142ND ST,2020-02-04,Residential,BRONX,10451,40.814815,-73.925145,Mott Haven-Port Morris
12324,1410 PROSPECT AVENUE,2020-03-02,Residential,BRONX,10459,40.832444,-73.896585,Crotona Park East
12329,116 DELANCEY STREET,2020-01-07,Commercial,MANHATTAN,10002,40.718526,-73.988074,Chinatown
12342,143-04 FERNDALE AVENUE,2020-01-07,Residential,QUEENS,11435,40.687638,-73.802626,South Jamaica
12345,420 EAST 105TH STREET,2020-01-23,Residential,MANHATTAN,10029,40.78862,-73.939797,East Harlem South
12440,1937-39 DALY AVE.,2020-03-09,Residential,BRONX,10460,40.841378,-73.884171,East Tremont
12441,401 EAST 8TH STREET,2020-02-21,Residential,BROOKLYN,11218,40.640242,-73.971005,Kensington-Ocean Parkway
12444,2092 DEAN STREET,2020-01-31,Residential,BROOKLYN,11233,40.675147,-73.918323,Ocean Hill
12458,541 WEST 29TH STREET,2020-03-04,Commercial,MANHATTAN,10001,40.752059,-74.002862,Hudson Yards-Chelsea-Flatiron-Union Square
12459,541 WEST 29TH STREET,2020-03-04,Commercial,MANHATTAN,10001,40.752059,-74.002862,Hudson Yards-Chelsea-Flatiron-Union Square
12487,1615 DEAN STREET,2020-01-24,Residential,BROOKLYN,11213,40.676041,-73.934411,Crown Heights North
12490,180 EAST 162ND ST,2020-01-03,Residential,BRONX,10451,40.827449,-73.921442,East Concourse-Concourse Village
12506,1325 EAST 19TH ST,2020-01-13,Residential,BROOKLYN,11230,40.618068,-73.95616,Midwood
12600,2856 BRONX PARK EAST,2020-03-10,Residential,BRONX,10467,40.867358,-73.870463,Bronxdale
12609,85 CLARKSON AVENUE,2020-01-03,Residential,BROOKLYN,11226,40.654999,-73.957231,Prospect Lefferts Gardens-Wingate
12617,596 EDGECOMBE AVENUE,2020-03-13,Residential,MANHATTAN,10032,40.835435,-73.937514,Washington Heights South
12620,1908 AMETHYST STREET,2020-03-03,Residential,BRONX,10462,40.847418,-73.868246,Van Nest-Morris Park-Westchester Square
12621,1908 AMETHYST STREET,2020-03-03,Residential,BRONX,10462,40.847418,-73.868246,Van Nest-Morris Park-Westchester Square
12625,158 WEST 132ND STREE T,2020-01-21,Residential,MANHATTAN,10027,40.812852,-73.943839,Central Harlem North-Polo Grounds
12635,650 NEW JERSEY AVE,2020-02-05,Residential,BROOKLYN,11207,40.663128,-73.892609,East New York (Pennsylvania Ave)
12653,86-68 MIDLAND PARKWAY,2020-01-27,Residential,QUEENS,11432,40.714707,-73.783089,Jamaica Estates-Holliswood
12695,779 CONCOURSE VILLAGE EAST,2020-02-27,Residential,BRONX,10451,40.823885,-73.919397,East Concourse-Concourse Village
12706,9029 ELDERT LANE,2020-02-06,Residential,QUEENS,11421,40.68596,-73.866762,Woodhaven
12733,89-44 162ND STREET,2020-02-05,Residential,QUEENS,11432,40.705606,-73.798498,Jamaica
12744,1763 LACOMBE AVENUE,2020-02-11,Residential,BRONX,10473,40.814693,-73.864044,Soundview-Castle Hill-Clason Point-Harding Park
12745,1763 LACOMBE AVENUE,2020-02-11,Residential,BRONX,10473,40.814693,-73.864044,Soundview-Castle Hill-Clason Point-Harding Park
12787,175 WEST 87TH STREET,2020-02-04,Residential,MANHATTAN,10024,40.787982,-73.973606,Upper West Side
12793,226 WEST 238TH STREET,2020-01-07,Residential,BRONX,10463,40.884882,-73.89995,Spuyten Duyvil-Kingsbridge
12794,226 WEST 238TH STREET,2020-01-07,Residential,BRONX,10463,40.884882,-73.89995,Spuyten Duyvil-Kingsbridge
12813,24-45 BEACH CHANNEL DRIVE,2020-01-21,Residential,QUEENS,11691,40.60074,-73.761712,Far Rockaway-Bayswater
12856,103-18 39TH AVENUE,2020-01-13,Commercial,QUEENS,11368,40.750734,-73.862854,North Corona
12857,77-02 34TH AVENUE,2020-02-26,Residential,QUEENS,11372,40.753252,-73.889529,Jackson Heights
12885,572 11TH AVENUE,2020-01-07,Residential,MANHATTAN,10036,40.761405,-73.997322,Clinton
12905,1632 UNIVERSITY AVENUE,2020-01-15,Residential,BRONX,10453,40.847635,-73.919401,University Heights-Morris Heights
12906,1632 UNIVERSITY AVENUE,2020-01-15,Residential,BRONX,10453,40.847635,-73.919401,University Heights-Morris Heights
12922,138-36 231 STREET,2020-01-03,Residential,QUEENS,11413,40.669798,-73.742187,Laurelton
12927,306 EAST 180 STREET,2020-02-20,Residential,BRONX,10457,40.852418,-73.899753,Mount Hope
12946,524 WEST 134TH STREE T,2020-02-18,Residential,MANHATTAN,10031,40.818868,-73.954254,Manhattanville
12947,41-35 149TH PLACE,2020-02-13,Residential,QUEENS,11355,40.761371,-73.814317,Murray Hill
12956,751 EAST 133RD ST,2020-01-23,Residential,BRONX,10454,40.801328,-73.914462,Mott Haven-Port Morris
12962,110-40 DUNKIRK   STR EET,2020-02-19,Commercial,QUEENS,11412,40.69943,-73.771627,St. Albans
13029,3230 CRUGER AVENUE,2020-01-22,Residential,BRONX,10467,40.872255,-73.866129,Williamsbridge-Olinville
13030,3230 CRUGER AVENUE,2020-01-22,Residential,BRONX,10467,40.872255,-73.866129,Williamsbridge-Olinville
13036,120 DARROW PLACE,2020-01-29,Residential,BRONX,10475,40.87801,-73.831956,Co-op City
13042,350 WEST 18TH STREET,2020-02-27,Residential,MANHATTAN,10016,40.742853,-74.002147,Hudson Yards-Chelsea-Flatiron-Union Square
13043,350 WEST 18TH STREET,2020-02-27,Residential,MANHATTAN,10016,40.742853,-74.002147,Hudson Yards-Chelsea-Flatiron-Union Square
13045,717 EAST 5TH STREET,2020-01-31,Residential,MANHATTAN,10009,40.722752,-73.979371,Lower East Side
13063,400 STANHOPE STREET,2020-02-07,Residential,BROOKLYN,11237,40.705121,-73.916014,Bushwick North
13081,610 WEST 204TH STREET,2020-01-07,Residential,MANHATTAN,10034,40.865503,-73.922149,Marble Hill-Inwood
13082,610 WEST 204TH STREET,2020-01-07,Residential,MANHATTAN,10034,40.865503,-73.922149,Marble Hill-Inwood
13087,655 MORRIS AVENUE,2020-02-13,Residential,BRONX,10451,40.81963,-73.921751,Melrose South-Mott Haven North
13117,540 EAST 169TH ST.,2020-02-11,Residential,BRONX,10456,40.832517,-73.904383,Claremont-Bathgate
13124,1239 CLAY AVENUE,2020-01-30,Residential,BRONX,10456,40.832961,-73.910302,East Concourse-Concourse Village
13156,164 ATKINS AVENUE,2020-03-02,Residential,BROOKLYN,11208,40.675079,-73.879142,East New York
13163,699 EAST 139TH ST,2020-02-13,Residential,BRONX,10454,40.805864,-73.913105,Mott Haven-Port Morris
13207,89-19 130TH STREET,2020-03-09,Commercial,QUEENS,11418,40.699204,-73.820938,Richmond Hill
13208,302 EASTERN PARKWAY,2020-02-03,Residential,BROOKLYN,11225,40.670832,-73.958843,Crown Heights South
13212,1348 WEBSTER AVENUE,2020-02-13,Residential,BRONX,10456,40.835095,-73.908029,Claremont-Bathgate
13245,2940 WEST 5TH STREET,2020-01-03,Residential,BROOKLYN,11224,40.577628,-73.97253,West Brighton
13294,1324 OGDEN AVENUE,2020-02-18,Residential,BRONX,10452,40.840679,-73.92517,Highbridge
13301,35-02 154TH STREET A /K/A 153-18 35TH AVENUE,2020-01-06,Commercial,QUEENS,11354,40.765831,-73.810853,Murray Hill
13309,188-36 LINDEN   BOUL EVARD,2020-02-26,Residential,QUEENS,11412,40.691769,-73.763273,St. Albans
13339,32 LENOX ROAD,2020-01-22,Residential,BROOKLYN,11226,40.653641,-73.958255,Prospect Lefferts Gardens-Wingate
13351,750 GRAND CONCOURSE,2020-03-04,Residential,BRONX,10451,40.822893,-73.924652,East Concourse-Concourse Village
13413,"1051 FIRST AVENUE A/ K/A 357 EAST 57TH STREET, STREL CLEANERS",2020-01-28,Commercial,MANHATTAN,10022,40.758602,-73.962723,Turtle Bay-East Midtown
13508,159-27 NORTHERN BLVD,2020-03-09,Commercial,QUEENS,11358,40.7631,-73.806125,Murray Hill
13536,1032 EAST 53RD STREET,2020-02-18,Residential,BROOKLYN,11234,40.634054,-73.925579,Flatlands
13537,1032 EAST 53RD STREET,2020-02-18,Residential,BROOKLYN,11234,40.634054,-73.925579,Flatlands
13544,2358 WEBSTER AVENUE,2020-01-09,Residential,BRONX,10458,40.857776,-73.894586,Fordham South
13583,138-26 78TH AVENUE,2020-03-11,Residential,QUEENS,11367,40.719783,-73.822088,Kew Gardens Hills
13602,33-43 CRESCENT STREET,2020-01-08,Residential,QUEENS,11106,40.7619,-73.929887,Astoria
13612,246 VERNON AVENUE,2020-03-11,Residential,BROOKLYN,11206,40.695461,-73.941835,Stuyvesant Heights
13647,154-05 71ST AVENUE,2020-03-11,Residential,QUEENS,11367,40.730359,-73.814811,Pomonok-Flushing Heights-Hillcrest
13682,2513 NEWKIRK AVE,2020-02-10,Residential,BROOKLYN,11226,40.639715,-73.952989,Erasmus
13694,48-18 BROADWAY,2020-03-09,Commercial,QUEENS,11103,40.755907,-73.912492,Astoria
13720,711B SEAGIRT AVE,2020-01-06,Residential,QUEENS,11691,40.595996,-73.742187,Far Rockaway-Bayswater
13752,333 BLAKE AVENUE,2020-03-05,Residential,BROOKLYN,11212,40.665941,-73.907632,Brownsville
13763,720 BERGEN STREET,2020-02-13,Residential,BROOKLYN,11238,40.678695,-73.964794,Prospect Heights
13783,120 WEST 183RD STREET,2020-01-22,Residential,BRONX,10453,40.859892,-73.91015,Kingsbridge Heights
13816,65 SEAMAN AVENUE,2020-03-03,Residential,MANHATTAN,10034,40.867912,-73.925512,Marble Hill-Inwood
13823,28-21 44 STREET,2020-01-22,Residential,QUEENS,11103,40.763347,-73.911006,Astoria
13853,750 EAST 163RD STREET,2020-02-19,Residential,BRONX,10456,40.82294,-73.904112,Morrisania-Melrose
13854,750 EAST 163RD STREET,2020-02-19,Residential,BRONX,10456,40.82294,-73.904112,Morrisania-Melrose
13890,331 EAST 132ND ST,2020-02-21,Residential,BRONX,10454,40.806023,-73.927612,Mott Haven-Port Morris
13896,137-06 GUY R. BREWER BLVD,2020-01-06,Residential,QUEENS,11434,40.671652,-73.774379,Springfield Gardens North
13956,1092 WILLMOHR STREET,2020-01-22,Residential,BROOKLYN,11212,40.656896,-73.917927,Rugby-Remsen Village
13978,360 WEST 47TH STREET,2020-02-06,Residential,MANHATTAN,10036,40.761094,-73.98912,Clinton
13979,360 WEST 47TH STREET,2020-02-06,Residential,MANHATTAN,10036,40.761094,-73.98912,Clinton
13992,2387 CRESTON AVENUE,2020-02-27,Residential,BRONX,10468,40.860114,-73.899579,Fordham South
13995,2185 SECOND AVENUE,2020-01-14,Residential,MANHATTAN,10029,40.794592,-73.939553,East Harlem North
14032,834 PENFIELD STREET,2020-01-24,Residential,BRONX,10470,40.904212,-73.846504,Woodlawn-Wakefield
14041,55 WEST 100TH STREET,2020-02-10,Residential,MANHATTAN,10025,40.794872,-73.964451,Upper West Side
14042,55 WEST 100TH STREET,2020-02-10,Residential,MANHATTAN,10025,40.794872,-73.964451,Upper West Side
14056,1583 WASHINGTON AVENUE,2020-02-06,Residential,BRONX,10457,40.839289,-73.902426,Claremont-Bathgate
14090,1058 UNIVERSITY AVE,2020-03-05,Residential,BRONX,10452,40.834836,-73.930157,Highbridge
14132,1120 WYATT STREET,2020-01-06,Residential,BRONX,10460,40.839227,-73.877081,Crotona Park East
14133,1120 WYATT STREET,2020-01-06,Residential,BRONX,10460,40.839227,-73.877081,Crotona Park East
14154,1090-98 CROES AVENUE,2020-02-20,Residential,BRONX,10472,40.82706,-73.870079,Soundview-Bruckner
14199,3250 BARKER AVE.,2020-02-11,Residential,BRONX,10467,40.872385,-73.869314,Williamsbridge-Olinville
14203,2A ADLER PLACE,2020-02-25,Residential,BRONX,10475,40.871475,-73.828183,Co-op City
14206,525 WEST 156TH STREE T,2020-01-03,Residential,MANHATTAN,10032,40.832666,-73.94349,Washington Heights South
14218,3310 AVE H,2020-01-13,Residential,BROOKLYN,11210,40.631844,-73.944413,Flatlands
14219,1227 MASON AVE.,2020-01-10,Residential,STATEN ISLAND,10306,40.574419,-74.097943,New Dorp-Midland Beach
14235,115-36 INWOOD STREET,2020-01-14,Residential,QUEENS,11436,40.682646,-73.796912,Baisley Park
14279,175-67 HILLSIDE AVENUE,2020-01-21,Residential,QUEENS,11432,40.711864,-73.787362,Jamaica Estates-Holliswood
14308,2000 VALENTINE AVENUE,2020-02-11,Residential,BRONX,10457,40.850099,-73.900714,Mount Hope
14339,1391 CLINTON AVENUE,2020-01-21,Residential,BRONX,10456,40.83369,-73.899149,Morrisania-Melrose
14347,1510 OCEAN PARKWAY,2020-01-06,Residential,BROOKLYN,11230,40.611572,-73.968104,Ocean Parkway South
14350,3764 BRONX BLVD,2020-01-21,Residential,BRONX,10467,40.883981,-73.866196,Williamsbridge-Olinville
14357,189-35 117TH ROAD,2020-03-02,Residential,QUEENS,11412,40.691096,-73.761706,St. Albans
14361,320 EAST 91ST STREET,2020-03-12,Residential,MANHATTAN,10128,40.780761,-73.948733,Yorkville
14398,700 OCEAN AVENUE,2020-01-13,Residential,BROOKLYN,11226,40.646011,-73.960246,Flatbush
14423,1484 MONTGOMERY AVE,2020-02-11,Residential,BRONX,10453,40.847518,-73.921064,University Heights-Morris Heights
14450,5201 SNYDER AVE AKA 417 EAST 52ND ST,2020-02-28,Residential,BROOKLYN,11203,40.650244,-73.928119,Rugby-Remsen Village
14472,144-20 38TH AVENUE,2020-01-23,Residential,QUEENS,11354,40.762972,-73.82177,Murray Hill
14498,1075 WEBSTER AVENUE,2020-03-11,Residential,BRONX,10456,40.828785,-73.911648,East Concourse-Concourse Village
14534,1468 EAST 103RD ST,2020-01-13,Residential,BROOKLYN,11236,40.637257,-73.885808,Canarsie
14545,140 BENCHLEY PLACE,2020-02-11,Residential,BRONX,10475,40.874189,-73.825876,Co-op City
14671,152-15 84TH ROAD,2020-02-18,Residential,QUEENS,11432,40.713363,-73.807925,Briarwood-Jamaica Hills
14717,560 RIVERSIDE DRIVE,2020-01-02,Residential,MANHATTAN,10027,40.817051,-73.960772,Morningside Heights
14730,73-35 GRAND AVENUE,2020-01-29,Commercial,QUEENS,11378,40.729894,-73.888954,Maspeth
14735,500 EAST 77TH STREET,2020-01-07,Residential,MANHATTAN,10162,40.769975,-73.951186,Lenox Hill-Roosevelt Island
14743,84-20 AUSTIN STREET,2020-02-14,Residential,QUEENS,11415,40.707669,-73.82783,Kew Gardens
14746,2254 GRAND CONCOURSE,2020-01-14,Residential,BRONX,10457,40.856662,-73.900397,Fordham South
14748,140 BRADHURST AVENUE,2020-03-13,Residential,MANHATTAN,10039,40.825949,-73.940923,Central Harlem North-Polo Grounds
14749,140 BRADHURST AVENUE,2020-03-13,Residential,MANHATTAN,10039,40.825949,-73.940923,Central Harlem North-Polo Grounds
14763,518 WEST 204TH ST,2020-02-27,Residential,MANHATTAN,10034,40.863443,-73.920835,Marble Hill-Inwood
14764,455 CASTLE HILL AVE,2020-03-12,Residential,BRONX,10473,40.815938,-73.847326,Soundview-Castle Hill-Clason Point-Harding Park
14787,1450 CLAY AVENUE,2020-01-15,Residential,BRONX,10456,40.837981,-73.907118,East Concourse-Concourse Village
14792,760 MACON STREET,2020-01-13,Residential,BROOKLYN,11233,40.684396,-73.920698,Stuyvesant Heights
14808,226 EAST 95TH STREET,2020-01-10,Residential,BROOKLYN,11212,40.660745,-73.922597,Rugby-Remsen Village
14812,220-30 JAMAICA AVENUE,2020-02-24,Commercial,QUEENS,11428,40.719163,-73.733929,Queens Village
14813,495 EAST 178TH ST,2020-01-03,Residential,BRONX,10457,40.848136,-73.896756,Claremont-Bathgate
14849,160 WEST 174TH STREE T,2020-02-04,Residential,BRONX,10453,40.847432,-73.922568,University Heights-Morris Heights
14866,866 LINDEN BOULEVARD,2020-01-08,Residential,BROOKLYN,11203,40.654083,-73.925982,Rugby-Remsen Village
14869,93-18 LIBERTY AVENUE,2020-02-19,Residential,QUEENS,11417,40.680205,-73.845607,Ozone Park
14884,2437 LYVERE STREET,2020-02-20,Residential,BRONX,10461,40.842186,-73.852221,Westchester-Unionport
14889,2161 WHITE PLAINS ROAD,2020-01-08,Commercial,BRONX,10462,40.855317,-73.867681,Pelham Parkway
14890,2161 WHITE PLAINS ROAD,2020-01-08,Commercial,BRONX,10462,40.855317,-73.867681,Pelham Parkway
14891,1330 INTERVALE AVE,2020-01-24,Residential,BRONX,10459,40.830904,-73.893118,Crotona Park East
14896,227-50 114TH RD,2020-03-09,Residential,QUEENS,11411,40.700882,-73.729974,Cambria Heights
14924,513 EAST 75TH STREET,2020-02-05,Residential,MANHATTAN,10021,40.768583,-73.951772,Lenox Hill-Roosevelt Island
14925,513 EAST 75TH STREET,2020-02-05,Residential,MANHATTAN,10021,40.768583,-73.951772,Lenox Hill-Roosevelt Island
14971,780 CONCOURSE VILLAGE WEST,2020-01-09,Residential,BRONX,10451,40.823921,-73.922884,East Concourse-Concourse Village
15005,65 HOLLAND AVENUE,2020-03-03,Residential,STATEN ISLAND,10303,40.638842,-74.17124,Mariner's Harbor-Arlington-Port Ivory-Graniteville
15100,113-02 SUTPHIN BLVD,2020-02-04,Residential,QUEENS,11435,40.686808,-73.794303,Baisley Park
15118,42-15 43RD AVENUE,2020-01-22,Residential,QUEENS,11104,40.745311,-73.921824,Hunters Point-Sunnyside-West Maspeth
15126,661 EAST 228TH STREET,2020-01-08,Residential,BRONX,10466,40.89046,-73.860949,Williamsbridge-Olinville
15127,661 EAST 228TH STREET,2020-01-08,Residential,BRONX,10466,40.89046,-73.860949,Williamsbridge-Olinville
15129,85 EAST 10TH STREET,2020-03-05,Residential,MANHATTAN,10003,40.731028,-73.989753,East Village
15134,503-505 WEST 138TH STREET,2020-03-09,Residential,MANHATTAN,10031,40.820999,-73.95121,Hamilton Heights
15155,1410 FRANKLIN AVENUE,2020-01-23,Residential,BRONX,10456,40.834531,-73.899946,Morrisania-Melrose
15160,377 OCEAN PARKWAY,2020-01-03,Residential,BROOKLYN,11218,40.639743,-73.973408,Kensington-Ocean Parkway
15165,59 EAST 8TH STREET,2020-01-14,Commercial,MANHATTAN,10003,40.731031,-73.99343,West Village
15178,137-12 88TH STREET,2020-02-10,Residential,QUEENS,11417,40.672904,-73.847952,Ozone Park
15183,458 EAST 51ST STREET,2020-03-02,Residential,BROOKLYN,11203,40.650624,-73.929261,Rugby-Remsen Village
15215,25-12 STEINWAY ST,2020-01-23,Residential,QUEENS,11103,40.767586,-73.912004,Astoria
15254,23-15 128TH STREET,2020-01-06,Residential,QUEENS,11356,40.778285,-73.840689,College Point
15295,122 WELDON STREET,2020-03-09,Residential,BROOKLYN,11208,40.680302,-73.870592,Cypress Hills-City Line
15301,48 ESSEX STREET,2020-03-02,Residential,BROOKLYN,11208,40.683494,-73.883638,Cypress Hills-City Line
15327,481 E 140TH ST,2020-01-06,Residential,BRONX,10454,40.809435,-73.919624,Mott Haven-Port Morris
15340,181-11 145TH ROAD,2020-02-27,Residential,QUEENS,11413,40.66477,-73.763967,Springfield Gardens South-Brookville
15346,2902 CORTELYOU ROAD,2020-01-22,Residential,BROOKLYN,11226,40.644387,-73.949699,Erasmus
15354,11-16 GRASSMERE TERRACE,2020-01-14,Residential,QUEENS,11691,40.60446,-73.756891,Far Rockaway-Bayswater
15362,934 EAST 165 STREET,2020-02-27,Residential,BRONX,10459,40.823872,-73.896114,Longwood
15382,100 LINDEN BLVD,2020-02-19,Residential,BROOKLYN,11226,40.652363,-73.954894,Prospect Lefferts Gardens-Wingate
15385,2435 FRISBY AVENUE,2020-02-11,Residential,BRONX,10461,40.838646,-73.847819,Westchester-Unionport
15483,1846 E.NEW YORK AVEN UE AKA 1838,2020-01-08,Commercial,BROOKLYN,11207,40.676618,-73.90067,East New York (Pennsylvania Ave)
15489,440 CITY ISLAND AVEN UE,2020-02-10,Residential,BRONX,10464,40.85054,-73.788017,Pelham Bay-Country Club-City Island
15516,107-04 OTIS AVENUE,2020-01-21,Residential,QUEENS,11368,40.740571,-73.854099,Corona
15527,858 EAST 222ND ST,2020-03-05,Residential,BRONX,10467,40.884252,-73.857143,Williamsbridge-Olinville
15547,128 EAST 57TH STREET,2020-01-21,Residential,BROOKLYN,11203,40.653027,-73.92373,Rugby-Remsen Village
15584,35-16 FARRINGTON STR EET,2020-03-02,Commercial,QUEENS,11354,40.764142,-73.831662,Flushing
15601,305 JEROME STREET,2020-01-31,Residential,BROOKLYN,11207,40.67425,-73.886974,East New York
15620,2-12 SEAMAN AVENUE,2020-01-13,Residential,MANHATTAN,10034,40.866335,-73.927882,Marble Hill-Inwood
15625,2026 WESTCHESTER AVE NUE,2020-02-18,Residential,BRONX,10462,40.833662,-73.856695,Westchester-Unionport
15660,200 EAST 82ND STREET,2020-01-30,Residential,MANHATTAN,10028,40.776089,-73.955536,Yorkville
15665,1245 EASTERN PARKWAY,2020-03-13,Residential,BROOKLYN,11213,40.66859,-73.927072,Crown Heights North
15731,2434 PROSPECT AVENUE A/K/A 2434-2438 PROSPECT AVENUE,2020-01-06,Residential,BRONX,10458,40.854553,-73.88224,Belmont
15741,1997 HUGHES AVENUE,2020-02-25,Residential,BRONX,10457,40.847066,-73.891593,East Tremont
15825,4 PETER COOPER ROAD,2020-02-13,Residential,MANHATTAN,10010,40.734886,-73.977011,Stuyvesant Town-Cooper Village
15870,40 HARRISON STREET,2020-03-03,Residential,MANHATTAN,10013,40.718866,-74.010844,SoHo-TriBeCa-Civic Center-Little Italy
15897,2730 8TH AVENUE,2020-02-24,Residential,MANHATTAN,10039,40.822933,-73.941832,Central Harlem North-Polo Grounds
15903,238 MAC DOUGAL STREE T,2020-01-22,Residential,BROOKLYN,11233,40.680307,-73.910601,Ocean Hill
15904,3436 FENTON AVENUE,2020-01-14,Residential,BRONX,10469,40.877204,-73.848566,Eastchester-Edenwald-Baychester
15914,1330 INTERVALE AVE,2020-01-24,Residential,BRONX,10459,40.830904,-73.893118,Crotona Park East
15922,121 SEAMAN AVENUE,2020-01-28,Residential,MANHATTAN,10034,40.86875,-73.923233,Marble Hill-Inwood
15949,1915 HARMON STREET,2020-02-14,Residential,QUEENS,11385,40.708182,-73.910538,Ridgewood
16021,20-16 SEAGIRT BOULEVARD,2020-01-21,Residential,QUEENS,11691,40.595178,-73.754923,Far Rockaway-Bayswater
16031,256 48TH STREET,2020-03-09,Commercial,BROOKLYN,11220,40.649475,-74.014559,Sunset Park West
16081,22-11 NEW HAVEN AVE,2020-02-05,Residential,QUEENS,11691,40.601049,-73.756061,Far Rockaway-Bayswater
16096,920 EAST 231ST STREET,2020-01-15,Residential,BRONX,10466,40.889938,-73.851532,Williamsbridge-Olinville
16097,920 EAST 231ST STREET,2020-01-15,Residential,BRONX,10466,40.889938,-73.851532,Williamsbridge-Olinville
16108,1785 73RD STREET,2020-01-22,Residential,BROOKLYN,11204,40.614925,-73.995382,Bensonhurst West
16113,57-07 SHORE FRONT PARKWAY,2020-02-24,Residential,QUEENS,11692,40.592085,-73.786713,Hammels-Arverne-Edgemere
16118,3756 NEPTUNE AVE.,2020-01-07,Residential,BROOKLYN,11224,40.576739,-74.004503,Seagate-Coney Island
16153,621 HINSDALE STREET,2020-02-25,Residential,BROOKLYN,11207,40.659284,-73.897448,East New York (Pennsylvania Ave)
16154,621 HINSDALE STREET,2020-02-25,Residential,BROOKLYN,11207,40.659284,-73.897448,East New York (Pennsylvania Ave)
16166,720 WEST 181ST STREE T,2020-02-18,Residential,MANHATTAN,10033,40.85049,-73.936842,Washington Heights South
16222,3574 DEKALB AVENUE,2020-01-30,Residential,BRONX,10467,40.884313,-73.87886,Norwood
16228,619 CASANOVA STREET,2020-01-03,Residential,BRONX,10474,40.812275,-73.889742,Hunts Point
16229,619 CASANOVA STREET,2020-01-03,Residential,BRONX,10474,40.812275,-73.889742,Hunts Point
16295,20-65 27 STREET,2020-01-09,Residential,QUEENS,11105,40.780021,-73.910348,Steinway
16301,565 WEST 192ND ST,2020-01-30,Residential,MANHATTAN,10040,40.855958,-73.928165,Washington Heights North
16311,852 ROGERS AVENUE,2020-03-09,Residential,BROOKLYN,11226,40.649862,-73.952395,Erasmus
16315,63-60 98TH STREET,2020-03-02,Residential,QUEENS,11374,40.730753,-73.858764,Rego Park
16365,595 ACADEMY STREET,2020-01-07,Commercial,MANHATTAN,10034,40.864161,-73.9236,Marble Hill-Inwood
16376,154 ROCKAWAY PARKWAY,2020-02-19,Residential,BROOKLYN,11212,40.663125,-73.922367,Brownsville
16393,54-76 82ND STREET,2020-02-24,Residential,QUEENS,11373,40.730881,-73.882722,Elmhurst
16413,921 42ND STREET,2020-01-03,Residential,BROOKLYN,11219,40.643885,-73.996191,Sunset Park East
16445,479 OVINGTON AVENUE,2020-02-13,Residential,BROOKLYN,11209,40.63292,-74.022103,Bay Ridge
16448,275 PRENTISS AVENUE,2020-01-15,Residential,BRONX,10465,40.82057,-73.809986,Schuylerville-Throgs Neck-Edgewater Park
16469,2326 GLEASON AVENUE,2020-01-07,Residential,BRONX,10462,40.832469,-73.846948,Westchester-Unionport
16501,173 BRABANT ST.,2020-01-31,Residential,STATEN ISLAND,10303,40.632124,-74.164687,Mariner's Harbor-Arlington-Port Ivory-Graniteville
16502,70 EAST 115TH ST,2020-02-25,Residential,MANHATTAN,10029,40.798844,-73.944313,East Harlem North
16505,220-23 135TH AVE,2020-01-22,Residential,QUEENS,11413,40.67731,-73.749563,Laurelton
16509,181 CITY ISLAND AVENUE,2020-01-24,Residential,BRONX,10464,40.843231,-73.785004,Pelham Bay-Country Club-City Island
16538,203 AVENUE M,2020-02-13,Residential,BROOKLYN,11230,40.616571,-73.973155,Ocean Parkway South
16552,402 EAST 65TH STREET,2020-03-12,Residential,MANHATTAN,10065,40.763187,-73.958837,Lenox Hill-Roosevelt Island
16574,4632 CARPENTER AVENU E,2020-01-13,Residential,BRONX,10470,40.903724,-73.853618,Woodlawn-Wakefield
16576,1223 MANOR AVENUE,2020-02-06,Residential,BRONX,10472,40.829694,-73.876581,West Farms-Bronx River
16584,9-23 THAYER STREET,2020-01-03,Residential,MANHATTAN,10040,40.86175,-73.925967,Washington Heights North
16591,85 HOLLAND AVENUE,2020-03-03,Residential,STATEN ISLAND,10303,40.638543,-74.171232,Mariner's Harbor-Arlington-Port Ivory-Graniteville
16595,134-45 155TH STREET,2020-01-27,Residential,QUEENS,11434,40.670612,-73.781213,Springfield Gardens North
16661,2785 OCEAN PARKWAY   APT. LB-LB1,2020-03-02,Residential,BROOKLYN,11235,40.581829,-73.96725,Brighton Beach
16666,3505 DEKALB AVENUE,2020-01-15,Commercial,BRONX,10467,40.882572,-73.880201,Norwood
16667,3505 DEKALB AVENUE,2020-01-15,Commercial,BRONX,10467,40.882572,-73.880201,Norwood
16704,1385 FIFTH AVE,2020-01-30,Residential,MANHATTAN,10029,40.799355,-73.947404,East Harlem North
16711,1297 PACIFIC STREET,2020-03-09,Commercial,BROOKLYN,11216,40.677627,-73.949137,Crown Heights North
16722,305 83RD STREET,2020-01-17,Residential,BROOKLYN,11209,40.625582,-74.029662,Bay Ridge
16734,963 EAST GUN HILL RD,2020-02-18,Residential,BRONX,10469,40.874892,-73.858588,Williamsbridge-Olinville
16791,1325 COMMONWEALTH AV ENUE,2020-01-14,Residential,BRONX,10472,40.833368,-73.868643,West Farms-Bronx River
16806,3013 NEWKIRK AVENUE,2020-01-06,Residential,BROOKLYN,11226,40.640009,-73.948186,Erasmus
16832,210 JAMAICA AVENUE,2020-01-06,Commercial,BROOKLYN,11207,40.6805,-73.892451,Cypress Hills-City Line
16839,65 WASHINGTON STREET,2020-03-11,Residential,BROOKLYN,11201,40.702307,-73.989627,DUMBO-Vinegar Hill-Downtown Brooklyn-Boerum Hill
16861,180 EAST 163 STREET,2020-01-16,Residential,BRONX,10451,40.828272,-73.920754,East Concourse-Concourse Village
16869,141 HENDRICKS AVE.,2020-02-04,Residential,STATEN ISLAND,10301,40.640029,-74.086311,West New Brighton-New Brighton-St. George
16887,287 WEST 150 STREET,2020-02-05,Residential,MANHATTAN,10039,40.825657,-73.938755,Central Harlem North-Polo Grounds
16890,1464 EAST 84 STREET,2020-03-11,Residential,BROOKLYN,11236,40.628221,-73.900176,Canarsie
16901,679 MAGENTA STREET,2020-02-11,Residential,BRONX,10467,40.875293,-73.867797,Williamsbridge-Olinville
16914,319 EAST 75TH STREET,2020-02-21,Commercial,MANHATTAN,10021,40.770482,-73.956276,Lenox Hill-Roosevelt Island
16962,29-44 GILMORE STREET,2020-01-02,Residential,QUEENS,11369,40.762282,-73.865332,East Elmhurst
16977,3340 BAILEY AVENUE,2020-02-04,Residential,BRONX,10463,40.879929,-73.900869,Van Cortlandt Village
16982,35 HAMILTON PLACE,2020-02-04,Commercial,MANHATTAN,10031,40.821952,-73.952463,Hamilton Heights
17056,4 PARK ROAD,2020-03-13,Residential,STATEN ISLAND,10312,40.537971,-74.15903,Great Kills
17078,3535 ROCHAMBEAU AVEN UE,2020-02-13,Residential,BRONX,10467,40.882408,-73.879058,Norwood
17082,323 MERSEREAU AVENUE,2020-02-10,Residential,STATEN ISLAND,10303,40.630105,-74.16377,Mariner's Harbor-Arlington-Port Ivory-Graniteville
17084,163-28 PHROANE   AVE NUE,2020-01-27,Residential,QUEENS,11433,40.69034,-73.786309,South Jamaica
17095,10-09 116TH STREET,2020-01-08,Residential,QUEENS,11356,40.788208,-73.851448,College Point
17140,3152 HULL AVENUE,2020-01-07,Residential,BRONX,10467,40.873193,-73.877289,Norwood
17143,35-16 FARRINGTON  ST REET,2020-03-02,Commercial,QUEENS,11354,40.764142,-73.831662,Flushing
17212,1781 RIVERSIDE DRIVE,2020-01-14,Residential,MANHATTAN,10034,40.86676,-73.930915,Washington Heights North
17245,330 HINSDALE STREET,2020-02-19,Residential,BROOKLYN,11207,40.66684,-73.899405,East New York (Pennsylvania Ave)
17263,1175 FINDLAY AVENUE,2020-02-13,Residential,BRONX,10456,40.832271,-73.912652,East Concourse-Concourse Village
17271,178 LEFFERTS AVENUE,2020-03-09,Residential,BROOKLYN,11225,40.662063,-73.95537,Prospect Lefferts Gardens-Wingate
17276,190 SOUTH 8TH STREET,2020-02-21,Residential,BROOKLYN,11211,40.70924,-73.96151,North Side-South Side
17299,331 EAST 132ND ST,2020-02-21,Residential,BRONX,10454,40.806023,-73.927612,Mott Haven-Port Morris
17352,531 EAST 6TH STREET,2020-02-11,Residential,MANHATTAN,10009,40.725124,-73.983108,East Village
17357,970 PROSPECT AVENUE,2020-02-27,Residential,BRONX,10459,40.823121,-73.900177,Longwood
17369,14 MARCY PL,2020-02-20,Residential,BRONX,10452,40.838797,-73.918133,West Concourse
17384,25 PROSPECT AVE.,2020-01-24,Residential,STATEN ISLAND,10301,40.640145,-74.088794,West New Brighton-New Brighton-St. George
17429,217 IRVING AVENUE,2020-01-23,Residential,BROOKLYN,11237,40.701049,-73.917927,Bushwick North
17430,217 IRVING AVENUE,2020-01-23,Residential,BROOKLYN,11237,40.701049,-73.917927,Bushwick North
17437,1590 UNDERCLIFF AVEN UE,2020-02-18,Residential,BRONX,10453,40.848494,-73.922473,University Heights-Morris Heights
17481,4711 OSMAN PLACE,2020-01-22,Residential,BRONX,10470,40.902394,-73.847579,Woodlawn-Wakefield
17482,4711 OSMAN PLACE,2020-01-22,Residential,BRONX,10470,40.902394,-73.847579,Woodlawn-Wakefield
17494,801 72ND STREET,2020-01-28,Residential,BROOKLYN,11228,40.628472,-74.01628,Dyker Heights
17547,2800 UNIVERSITY AVENUE,2020-01-30,Residential,BRONX,10468,40.871572,-73.899193,Van Cortlandt Village
17548,2800 UNIVERSITY AVENUE,2020-01-30,Residential,BRONX,10468,40.871572,-73.899193,Van Cortlandt Village
17551,364 EAST 170TH STREET,2020-02-18,Residential,BRONX,10456,40.837022,-73.908797,East Concourse-Concourse Village
17552,364 EAST 170TH STREET,2020-02-18,Residential,BRONX,10456,40.837022,-73.908797,East Concourse-Concourse Village
17559,7929 CALAMUS AVENUE,2020-03-09,Residential,QUEENS,11373,40.734038,-73.885812,Elmhurst-Maspeth
17565,35-05 PARSONS   BOUL EVARD,2020-02-19,Residential,QUEENS,11354,40.765618,-73.823673,Murray Hill
17574,765 COURTLANDT  AVENUE,2020-01-14,Residential,BRONX,10451,40.821666,-73.917221,Melrose South-Mott Haven North
17585,457 BELMONT AVENUE,2020-01-15,Residential,BROOKLYN,11207,40.671074,-73.892578,East New York
17593,188-25 KEESEVILLE AVENUE,2020-02-19,Residential,QUEENS,11412,40.699081,-73.765843,St. Albans
17603,593 EAST 93RD STREET,2020-01-31,Residential,BROOKLYN,11236,40.653025,-73.916422,Rugby-Remsen Village
17622,1420 GRAND CONCOURSE,2020-01-06,Residential,BRONX,10456,40.839249,-73.913448,East Concourse-Concourse Village
17648,425 EAST 153RD STREE T,2020-02-25,Residential,BRONX,10455,40.818734,-73.915903,Melrose South-Mott Haven North
17652,880 GATES AVENUE,2020-03-06,Residential,BROOKLYN,11221,40.688707,-73.928871,Stuyvesant Heights
17672,220 EAST 63RD STREET,2020-02-04,Residential,MANHATTAN,10065,40.763774,-73.964103,Lenox Hill-Roosevelt Island
17676,138-36 231 STREET,2020-01-03,Residential,QUEENS,11413,40.669798,-73.742187,Laurelton
17677,2500 UNIVERSITY AVEN UE,2020-03-03,Residential,BRONX,10468,40.865175,-73.903396,Kingsbridge Heights
17712,20-55 SEAGIRT BOULEVARD,2020-02-14,Residential,QUEENS,11691,40.595234,-73.756485,Far Rockaway-Bayswater
17726,1459 GRAND CONCOURSE,2020-01-06,Residential,BRONX,10452,40.840311,-73.91293,West Concourse
17730,87 E 55 STREET,2020-01-22,Residential,BROOKLYN,11203,40.656142,-73.925994,Rugby-Remsen Village
17741,3756 NEPTUNE AVENUE,2020-01-07,Residential,BROOKLYN,11224,40.576739,-74.004503,Seagate-Coney Island
17779,560 WILLIAMS AVENUE,2020-01-29,Residential,BROOKLYN,11207,40.661996,-73.897206,East New York (Pennsylvania Ave)
17806,220-07 MERRICK BLVD,2020-02-18,Residential,QUEENS,11413,40.678912,-73.748926,Laurelton
17814,149-05 79TH AVENUE,2020-03-12,Residential,QUEENS,11367,40.719741,-73.814158,Kew Gardens Hills
17852,85 CLARKSON AVENUE,2020-01-03,Residential,BROOKLYN,11226,40.654999,-73.957231,Prospect Lefferts Gardens-Wingate
17855,114-33 FARMERS BLVD,2020-01-24,Residential,QUEENS,11412,40.697011,-73.761876,St. Albans
17858,102 WEST 183RD STREE T,2020-02-18,Residential,BRONX,10453,40.860108,-73.908758,Kingsbridge Heights
17883,2186 FIFTH AVENUE,2020-02-05,Residential,MANHATTAN,10037,40.811593,-73.938494,Central Harlem North-Polo Grounds
17908,2017 MORRIS AVENUE,2020-02-06,Residential,BRONX,10453,40.852259,-73.906426,Mount Hope
17909,2017 MORRIS AVENUE,2020-02-06,Residential,BRONX,10453,40.852259,-73.906426,Mount Hope
17976,1455 EAST 103RD ST,2020-02-24,Residential,BROOKLYN,11236,40.637392,-73.88593,Canarsie
17981,738-740 WEST 187TH S TREET,2020-01-28,Residential,MANHATTAN,10033,40.854713,-73.935396,Washington Heights North
17984,2816 HARWAY AVENUE,2020-02-19,Residential,BROOKLYN,11214,40.588486,-73.985512,Gravesend
18065,153 EAST 51ST STREET A/K/A 881 WINTHROP STREET,2020-01-27,Residential,BROOKLYN,11203,40.658708,-73.9301,Prospect Lefferts Gardens-Wingate
18066,1372 SHAKESPEARE AVENUE,2020-02-24,Residential,BRONX,10452,40.841313,-73.921736,Highbridge
18067,1372 SHAKESPEARE AVENUE,2020-02-24,Residential,BRONX,10452,40.841313,-73.921736,Highbridge
18079,1528 BRYANT AVENUE,2020-01-14,Residential,BRONX,10460,40.833539,-73.886855,Crotona Park East
18102,144-39 175TH STREET,2020-01-06,Residential,QUEENS,11434,40.666075,-73.774502,Springfield Gardens South-Brookville
18112,16 METROPOLITAN OVAL,2020-01-14,Residential,BRONX,10462,40.83827,-73.859135,Parkchester
18117,260 SPRING STREET,2020-02-06,Commercial,MANHATTAN,10013,40.725704,-74.006195,SoHo-TriBeCa-Civic Center-Little Italy
18118,260 SPRING STREET,2020-02-06,Commercial,MANHATTAN,10013,40.725704,-74.006195,SoHo-TriBeCa-Civic Center-Little Italy
18177,160-32 75TH ROAD,2020-01-02,Residential,QUEENS,11366,40.72606,-73.808264,Kew Gardens Hills
18196,471 EAST 45TH STREET,2020-02-24,Residential,BROOKLYN,11203,40.650254,-73.935057,East Flatbush-Farragut
18207,3990 BRONX BLVD,2020-01-03,Commercial,BRONX,10466,40.889347,-73.864004,Williamsbridge-Olinville
18219,2000 VALENTINE AVENUE,2020-02-25,Residential,BRONX,10457,40.850099,-73.900714,Mount Hope
18289,759 ST. NICHOLAS AVE,2020-03-12,Residential,MANHATTAN,10031,40.826104,-73.943304,Hamilton Heights
18327,22 MONACO PLACE,2020-01-27,Residential,BROOKLYN,11233,40.676734,-73.909059,Ocean Hill
18328,329 EAST 132ND STREET,2020-02-21,Residential,BRONX,10454,40.806039,-73.927655,Mott Haven-Port Morris
18352,1579 STERLING PLACE,2020-01-07,Residential,BROOKLYN,11213,40.671235,-73.926338,Crown Heights North
18359,514 WEST 213TH STREET,2020-01-15,Residential,MANHATTAN,10034,40.868402,-73.916505,Marble Hill-Inwood
18366,1674 ANTHONY AVENUE,2020-01-21,Commercial,BRONX,10457,40.843499,-73.904526,Claremont-Bathgate
18367,1674 ANTHONY AVENUE,2020-01-21,Commercial,BRONX,10457,40.843499,-73.904526,Claremont-Bathgate
18376,206 E. 10TH STREET,2020-01-15,Residential,MANHATTAN,10003,40.729428,-73.986012,East Village
18396,86 NEWPORT STREET,2020-02-26,Residential,BROOKLYN,11212,40.658855,-73.912266,Brownsville
18406,2881 RANDALL AVENUE,2020-02-06,Residential,BRONX,10465,40.825887,-73.822357,Schuylerville-Throgs Neck-Edgewater Park
18429,71-15 BEACH CHANNEL DRIVE,2020-01-27,Residential,QUEENS,11692,40.592035,-73.800011,Hammels-Arverne-Edgemere
18434,244 KINGS HIGHWAY,2020-02-28,Residential,BROOKLYN,11223,40.60533,-73.981712,Bensonhurst East
18442,90-09 78TH STREET,2020-01-31,Residential,QUEENS,11421,40.687539,-73.86284,Woodhaven
18453,1134 76TH STREET,2020-02-14,Residential,BROOKLYN,11228,40.621806,-74.011552,Dyker Heights
18473,401 EAST 34TH STREET,2020-01-29,Residential,MANHATTAN,10016,40.743712,-73.973309,Turtle Bay-East Midtown
18499,533 WEST 151ST STREET,2020-02-28,Residential,MANHATTAN,10031,40.829467,-73.94587,Hamilton Heights
18500,533 WEST 151ST STREET,2020-02-28,Residential,MANHATTAN,10031,40.829467,-73.94587,Hamilton Heights
18518,50 OVERLOOK TERRACE,2020-02-21,Residential,MANHATTAN,10033,40.854313,-73.936256,Washington Heights North
18555,506 TINTON AVENUE,2020-01-07,Residential,BRONX,10455,40.811681,-73.906671,Mott Haven-Port Morris
18588,1852 67TH ST.,2020-03-06,Residential,BROOKLYN,11204,40.617293,-73.990282,Bensonhurst West
18608,641 62ND STREET,2020-01-06,Commercial,BROOKLYN,11220,40.63644,-74.014181,Sunset Park East
18625,203 AVENUE M,2020-02-13,Residential,BROOKLYN,11230,40.616571,-73.973155,Ocean Parkway South
18626,76-05 267TH STREET,2020-02-28,Residential,QUEENS,11040,40.751429,-73.708438,Glen Oaks-Floral Park-New Hyde Park
18637,9115 RIDGE BOULEVARD,2020-03-03,Residential,BROOKLYN,11209,40.620464,-74.035218,Bay Ridge
18688,1164 CROES AVENUE,2020-02-18,Residential,BRONX,10472,40.828468,-73.870401,Soundview-Bruckner
18713,2418 UNIVERSITY AVENUE,2020-03-13,Residential,BRONX,10468,40.863321,-73.904563,Kingsbridge Heights
18714,2418 UNIVERSITY AVENUE,2020-03-13,Residential,BRONX,10468,40.863321,-73.904563,Kingsbridge Heights
18747,2225 LACOMBE AVE,2020-01-30,Residential,BRONX,10473,40.817046,-73.846561,Soundview-Castle Hill-Clason Point-Harding Park
18756,1676 BROADWAY,2020-03-13,Residential,BROOKLYN,11207,40.684159,-73.912683,Ocean Hill
